address,zip_code,price,sell_date,sell_type,price_per_sq_m,no_rooms,housing_type,size_in_sq_m,year_of_construction,price_change_in_pct,zip_code_num,long,lat
"Finderupvej 2C, 3. TV",8000 Aarhus C,2725000,2015-12-31,Alm. Salg,31321.0,3.0,Lejlighed,87.0,2009.0,0.0,8000,10.182282,56.155447
"Silkeborgvej 116, ST. TH",8000 Aarhus C,1575000,2015-12-30,Alm. Salg,25000.0,2.0,Lejlighed,63.0,1936.0,-1.0,8000,10.180301,56.156594
"Åparken 6, ST. 1",8000 Aarhus C,3349000,2015-12-30,Alm. Salg,31299.0,4.0,Lejlighed,107.0,2001.0,0.0,8000,10.187519,56.154112
"Ingerslevs Boulevard 19, 4. TH",8000 Aarhus C,4200000,2015-12-30,Alm. Salg,38181.0,5.0,Lejlighed,110.0,1929.0,0.0,8000,10.192979,56.14409
"Telefontorvet 4, 4. TV",8000 Aarhus C,3925000,2015-12-29,Alm. Salg,38861.0,3.0,Lejlighed,101.0,2005.0,-2.0,8000,10.207114,56.155616
"Nordborggade 4, 3. TV",8000 Aarhus C,2385000,2015-12-29,Alm. Salg,28392.0,3.0,Lejlighed,84.0,1944.0,-3.0,8000,10.187113,56.144232
"Østbanetorvet 7, 4. TH",8000 Aarhus C,3398000,2015-12-29,Alm. Salg,32056.0,3.0,Lejlighed,106.0,1898.0,0.0,8000,10.215128,56.163386
"Silkeborgvej 142, 3. TV",8000 Aarhus C,1350000,2015-12-29,Fam. Salg,22881.0,2.0,Lejlighed,59.0,1938.0,0.0,8000,10.178795,56.156289
Finderupvej 2E,8000 Aarhus C,1783000,2015-12-29,Alm. Salg,27430.0,2.0,Lejlighed,65.0,2009.0,0.0,8000,10.182041,56.155521
"Schleppegrellsgade 18B, 3. TV",8000 Aarhus C,2300000,2015-12-28,Alm. Salg,34328.0,2.0,Lejlighed,67.0,1933.0,-2.0,8000,10.192398,56.147555
"Østboulevarden 19, 1",8000 Aarhus C,2050000,2015-12-28,Alm. Salg,35964.0,2.0,Lejlighed,57.0,1904.0,0.0,8000,10.212886,56.164509
"Vestervang 40, 5. 4057",8000 Aarhus C,2863300,2015-12-27,Alm. Salg,38177.0,3.0,Lejlighed,75.0,1969.0,-4.0,8000,10.189938,56.164916
"Thunøgade 19, 2",8000 Aarhus C,2950000,2015-12-24,Alm. Salg,31052.0,3.0,Lejlighed,95.0,1891.0,-5.0,8000,10.205377,56.1612
"Sønderborggade 13, 1. TV",8000 Aarhus C,1437500,2015-12-24,Fam. Salg,21139.0,2.0,Lejlighed,68.0,1960.0,0.0,8000,10.18126,56.141053
"Banegårdsgade 25, 3",8000 Aarhus C,2800000,2015-12-23,Alm. Salg,26168.0,4.0,Lejlighed,107.0,1880.0,-2.0,8000,10.201635,56.150534
"Harald Jensens Plads 15, 2. TV",8000 Aarhus C,1044300,2015-12-23,Fam. Salg,17405.0,2.0,Lejlighed,60.0,1934.0,0.0,8000,10.189441,56.142938
"Marselisborg Allé 10, 2. TH",8000 Aarhus C,2700000,2015-12-23,Alm. Salg,37500.0,3.0,Lejlighed,72.0,1990.0,-3.0,8000,10.207188,56.147627
"Silkeborgvej 178, ST. 1",8000 Aarhus C,900000,2015-12-23,Alm. Salg,27272.0,1.0,Lejlighed,33.0,1939.0,-2.0,8000,10.176785,56.156156
Vesterport 8L,8000 Aarhus C,3200000,2015-12-23,Alm. Salg,29357.0,4.0,Lejlighed,109.0,1870.0,0.0,8000,10.200313,56.157902
"Marstrandsgade 22, 4",8000 Aarhus C,1960000,2015-12-22,Alm. Salg,27222.0,2.0,Lejlighed,72.0,1900.0,-2.0,8000,10.197281,56.154431
"Skernvej 12, 5. TH",8000 Aarhus C,3100000,2015-12-22,Alm. Salg,38271.0,3.0,Lejlighed,81.0,1931.0,-2.0,8000,10.189259,56.157784
"Paradisgade 15, 1",8000 Aarhus C,3300000,2015-12-22,Andet,33673.0,4.0,Lejlighed,98.0,1880.0,0.0,8000,10.20945,56.160378
"Paradisgade 15, ST",8000 Aarhus C,2700000,2015-12-22,Andet,23478.0,5.0,Lejlighed,115.0,1880.0,0.0,8000,10.20945,56.160378
"De Mezas Vej 20, 1. TV",8000 Aarhus C,3525000,2015-12-22,Alm. Salg,26111.0,4.0,Lejlighed,135.0,1928.0,-2.0,8000,10.190465,56.144761
"Klostertorvet 11, 4. 8",8000 Aarhus C,2230000,2015-12-22,Alm. Salg,38448.0,2.0,Lejlighed,58.0,2015.0,0.0,8000,10.20583,56.158084
"Åhusene 4, 2. 2",8000 Aarhus C,2600000,2015-12-22,Alm. Salg,38235.0,3.0,Lejlighed,68.0,2011.0,0.0,8000,10.188655,56.153023
"Silkeborgvej 162, ST. TH",8000 Aarhus C,1190000,2015-12-21,Fam. Salg,23800.0,2.0,Lejlighed,50.0,1939.0,0.0,8000,10.177799,56.156222
"Rudolph Wulffs Gade 17, 1. TV",8000 Aarhus C,808000,2015-12-21,Andet,8879.0,3.0,Lejlighed,91.0,1953.0,0.0,8000,10.184192,56.139767
"Anholtsgade 11, 2. TH",8000 Aarhus C,1700000,2015-12-21,Alm. Salg,25757.0,2.0,Lejlighed,66.0,1909.0,-4.0,8000,10.208547,56.160805
"Hans Broges Gade 10, ST",8000 Aarhus C,2660000,2015-12-21,Alm. Salg,29555.0,3.0,Lejlighed,90.0,1904.0,-5.0,8000,10.204146,56.143888
"Klostertorvet 11, 4. 4",8000 Aarhus C,2025000,2015-12-21,Alm. Salg,45000.0,2.0,Lejlighed,45.0,2015.0,0.0,8000,10.20583,56.158084
"Vestervang 32, 4. TH",8000 Aarhus C,2648000,2015-12-18,Alm. Salg,37828.0,2.0,Lejlighed,70.0,1983.0,0.0,8000,10.19178,56.164467
"Østboulevarden 1, ST. TV",8000 Aarhus C,2495000,2015-12-18,Alm. Salg,28352.0,3.0,Lejlighed,88.0,1895.0,-4.0,8000,10.214439,56.163568
"Grønnegade 65, 2. TH",8000 Aarhus C,547500,2015-12-18,Fam. Salg,8295.0,2.0,Lejlighed,66.0,1989.0,0.0,8000,10.202089,56.158819
"Nordborggade 55, 3. TV",8000 Aarhus C,2495000,2015-12-18,Alm. Salg,29011.0,3.0,Lejlighed,86.0,1961.0,0.0,8000,10.183681,56.145456
"Finderupvej 2M, ST. 4",8000 Aarhus C,2050000,2015-12-18,Alm. Salg,31060.0,2.0,Lejlighed,66.0,2009.0,0.0,8000,10.181402,56.155227
"Schleppegrellsgade 20, 2",8000 Aarhus C,2098000,2015-12-17,Alm. Salg,30852.0,2.0,Lejlighed,68.0,1937.0,0.0,8000,10.19229,56.147646
"Gammel Munkegade 6, ST. TV",8000 Aarhus C,1875000,2015-12-17,Alm. Salg,30241.0,2.0,Lejlighed,62.0,1890.0,0.0,8000,10.204348,56.159403
"Studsgade 30, ST. TH",8000 Aarhus C,1370000,2015-12-17,Fam. Salg,22096.0,2.0,Lejlighed,62.0,1910.0,0.0,8000,10.211245,56.15966
"Vestervang 25F, 2. TV",8000 Aarhus C,2700000,2015-12-17,Alm. Salg,38028.0,2.0,Lejlighed,71.0,1985.0,0.0,8000,10.191747,56.164167
"Klostertorvet 11, 2. 1",8000 Aarhus C,1800000,2015-12-17,Alm. Salg,38297.0,2.0,Lejlighed,47.0,2015.0,0.0,8000,10.20583,56.158084
"Fredericiagade 22, 2",8000 Aarhus C,1835000,2015-12-16,Alm. Salg,35288.0,2.0,Lejlighed,52.0,1886.0,-1.0,8000,10.20204,56.148495
"Vestre Ringgade 156, ST. TH",8000 Aarhus C,1930000,2015-12-16,Alm. Salg,26805.0,3.0,Lejlighed,72.0,1948.0,0.0,8000,10.189404,56.166328
"Montanagade 57, 2",8000 Aarhus C,1995000,2015-12-16,Alm. Salg,35625.0,2.0,Lejlighed,56.0,1907.0,0.0,8000,10.200074,56.145306
"Marselis Boulevard 36, 1. TV",8000 Aarhus C,3250000,2015-12-16,Alm. Salg,27542.0,4.0,Lejlighed,118.0,1967.0,-3.0,8000,10.198601,56.141358
"Finderupvej 2L, 2. 2",8000 Aarhus C,2100000,2015-12-16,Alm. Salg,29577.0,2.0,Lejlighed,71.0,2009.0,0.0,8000,10.181397,56.155402
"Mariane Thomsens Gade 42, ST. 2",8000 Aarhus C,1998000,2015-12-16,Alm. Salg,28140.0,2.0,Lejlighed,71.0,2013.0,0.0,8000,10.229664,56.164891
"Viborgvej 27, 5. TH",8000 Aarhus C,969000,2015-12-15,Fam. Salg,17944.0,1.0,Lejlighed,54.0,1930.0,0.0,8000,10.190061,56.158491
"Nordborggade 27, 4. TH",8000 Aarhus C,1775000,2015-12-15,Alm. Salg,30603.0,2.0,Lejlighed,58.0,1960.0,-1.0,8000,10.184742,56.144502
"Sjællandsgade 87, 2",8000 Aarhus C,2890000,2015-12-15,Alm. Salg,31758.0,4.0,Lejlighed,91.0,1889.0,-4.0,8000,10.205091,56.162995
"Åparken 2, 4. 11",8000 Aarhus C,875000,2015-12-15,Alm. Salg,29166.0,1.0,Lejlighed,30.0,1999.0,0.0,8000,10.186038,56.154104
"Marselisborg Allé 30A, 4. TH",8000 Aarhus C,2410000,2015-12-14,Alm. Salg,38870.0,2.0,Lejlighed,62.0,1915.0,-4.0,8000,10.206011,56.146264
"Samsøgade 78, 3",8000 Aarhus C,1100000,2015-12-14,Fam. Salg,20000.0,2.0,Lejlighed,55.0,1899.0,0.0,8000,10.200576,56.16205
"Vestervang 34, 6. TH",8000 Aarhus C,2648000,2015-12-14,Alm. Salg,36273.0,2.0,Lejlighed,73.0,1983.0,0.0,8000,10.191282,56.164544
"Grete Løchtes Gade 2, ST. TV",8000 Aarhus C,2249000,2015-12-14,Alm. Salg,24988.0,2.0,Lejlighed,90.0,2016.0,0.0,8000,10.225141,56.165482
"Nørrebrogade 20E, 3. TH",8000 Aarhus C,2845000,2015-12-14,Alm. Salg,37933.0,3.0,Lejlighed,75.0,2015.0,-2.0,8000,10.211223,56.163569
"Grete Løchtes Gade 6, ST. TH",8000 Aarhus C,2125000,2015-12-14,Alm. Salg,25000.0,2.0,Lejlighed,85.0,2016.0,0.0,8000,10.22472,56.165726
"Vestervang 19, 4. MF",8000 Aarhus C,2199000,2015-12-13,Alm. Salg,32820.0,2.0,Lejlighed,67.0,1986.0,0.0,8000,10.195031,56.16378
"Helga Pedersens Gade 5, 5. 2",8000 Aarhus C,2898000,2015-12-13,Alm. Salg,40250.0,2.0,Lejlighed,72.0,2014.0,0.0,8000,10.2294,56.16676
"Nørre Allé 37, 4. TV",8000 Aarhus C,3150000,2015-12-12,Alm. Salg,32142.0,4.0,Lejlighed,98.0,1912.0,-1.0,8000,10.203378,56.159678
"Ringkøbingvej 6, ST. MF",8000 Aarhus C,1475000,2015-12-11,Alm. Salg,35119.0,2.0,Lejlighed,42.0,1939.0,-1.0,8000,10.189129,56.157111
"Mariane Thomsens Gade 50, 5. 2",8000 Aarhus C,2898000,2015-12-11,Alm. Salg,32931.0,2.0,Lejlighed,88.0,2013.0,0.0,8000,10.23058,56.164941
"Sonnesgade 17, 4. TV",8000 Aarhus C,900000,2015-12-10,Fam. Salg,16981.0,2.0,Lejlighed,53.0,1918.0,0.0,8000,10.194164,56.150175
"Sølystgade 56, ST",8000 Aarhus C,1790000,2015-12-10,Alm. Salg,26323.0,3.0,Lejlighed,68.0,1898.0,-3.0,8000,10.20388,56.161852
"Ceres Allé 7, 15. 6",8000 Aarhus C,3775000,2015-12-10,Alm. Salg,38917.0,4.0,Lejlighed,97.0,2016.0,0.0,8000,10.191218,56.154591
"Klostertorvet 11, 3. 3",8000 Aarhus C,1875000,2015-12-10,Alm. Salg,35377.0,2.0,Lejlighed,53.0,2015.0,0.0,8000,10.20583,56.158084
"Frederiksgade 69, 1. TH",8000 Aarhus C,1550000,2015-12-09,Fam. Salg,27192.0,2.0,Lejlighed,57.0,1870.0,0.0,8000,10.203977,56.154263
"Vesterbrogade 9, 1. TV",8000 Aarhus C,2090000,2015-12-09,Alm. Salg,28243.0,3.0,Lejlighed,74.0,1929.0,-5.0,8000,10.196985,56.157876
"Skovvejen 9, ST. TH",8000 Aarhus C,2199000,2015-12-09,Alm. Salg,28558.0,2.0,Lejlighed,77.0,1937.0,0.0,8000,10.216441,56.163975
"Kroghsgade 6, 1",8000 Aarhus C,2040000,2015-12-09,Fam. Salg,18715.0,3.0,Lejlighed,109.0,1885.0,0.0,8000,10.196319,56.145603
"Åparken 6, 5. 5",8000 Aarhus C,2450000,2015-12-08,Alm. Salg,31012.0,3.0,Lejlighed,79.0,2001.0,-2.0,8000,10.187519,56.154112
"Tøndergade 96, 3. TV",8000 Aarhus C,1825000,2015-12-08,Alm. Salg,26449.0,2.0,Lejlighed,69.0,1957.0,27.0,8000,10.179798,56.139787
"Dagmar Petersens Gade 68, 3. TH",8000 Aarhus C,4799000,2015-12-08,Alm. Salg,30961.0,4.0,Lejlighed,155.0,2016.0,0.0,8000,10.224678,56.165936
"Bernhardt Jensens Boulevard 91, ST. TV",8000 Aarhus C,2099000,2015-12-08,Alm. Salg,24988.0,2.0,Lejlighed,84.0,2016.0,0.0,8000,10.225638,56.165677
"Ceres Allé 7, 18. 3",8000 Aarhus C,6900000,2015-12-08,Alm. Salg,42857.0,4.0,Lejlighed,161.0,2016.0,0.0,8000,10.191218,56.154591
"Dagmar Petersens Gade 94, 3. 1",8000 Aarhus C,4800000,2015-12-08,Alm. Salg,38095.0,3.0,Lejlighed,126.0,2016.0,0.0,8000,10.227889,56.166993
"Paludan-Müllers Vej 9, ST",8000 Aarhus C,2000000,2015-12-07,Alm. Salg,30303.0,2.0,Lejlighed,66.0,1925.0,-5.0,8000,10.194437,56.165583
"Ny Munkegade 32, 4. TV",8000 Aarhus C,2025000,2015-12-07,Alm. Salg,30223.0,2.0,Lejlighed,67.0,1897.0,-3.0,8000,10.203398,56.161821
"Schleppegrellsgade 8, 3. TV",8000 Aarhus C,2340000,2015-12-07,Alm. Salg,30000.0,3.0,Lejlighed,78.0,1901.0,-6.0,8000,10.192675,56.146901
"Stadion Allé 8, 5. TH",8000 Aarhus C,2225000,2015-12-07,Alm. Salg,39035.0,2.0,Lejlighed,57.0,1928.0,-3.0,8000,10.193727,56.143679
"Thunøgade 10, ST",8000 Aarhus C,2850000,2015-12-07,Alm. Salg,31666.0,3.0,Lejlighed,90.0,1877.0,2.0,8000,10.206898,56.161616
"Skolegade 23, 3",8000 Aarhus C,2398000,2015-12-07,Alm. Salg,24979.0,3.0,Lejlighed,96.0,1989.0,0.0,8000,10.21159,56.155316
"Ceres Allé 7, 4. 2",8000 Aarhus C,3550000,2015-12-07,Alm. Salg,30084.0,4.0,Lejlighed,118.0,2016.0,0.0,8000,10.191218,56.154591
"Nørre Allé 46B, ST",8000 Aarhus C,1625000,2015-12-06,Fam. Salg,20569.0,2.0,Lejlighed,79.0,1916.0,0.0,8000,10.204772,56.160215
"Ingerslevs Plads 1B, ST",8000 Aarhus C,1232500,2015-12-05,Fam. Salg,18125.0,2.0,Lejlighed,68.0,1911.0,0.0,8000,10.199933,56.144858
Strandvejen 56,8000 Aarhus C,6650000,2015-12-04,Alm. Salg,27824.0,9.0,Villa,239.0,1940.0,-5.0,8000,10.206705,56.140457
"Vestergade 78, ST. TH",8000 Aarhus C,2475000,2015-12-04,Alm. Salg,29117.0,3.0,Lejlighed,85.0,1927.0,-1.0,8000,10.198421,56.157102
"Dagmar Petersens Gade 68, 4. TV",8000 Aarhus C,4515000,2015-12-04,Alm. Salg,32482.0,4.0,Lejlighed,139.0,2016.0,0.0,8000,10.224678,56.165936
"Frederiks Allé 106, 2",8000 Aarhus C,1430000,2015-12-03,Alm. Salg,28600.0,2.0,Lejlighed,50.0,1876.0,-5.0,8000,10.196167,56.148058
"Hans Broges Gade 19, 4. TV",8000 Aarhus C,2150000,2015-12-03,Alm. Salg,35833.0,1.0,Lejlighed,60.0,1907.0,0.0,8000,10.204618,56.14413
"Vestervang 32, 4. MF",8000 Aarhus C,1875000,2015-12-03,Alm. Salg,27573.0,2.0,Lejlighed,68.0,1983.0,0.0,8000,10.19178,56.164467
"Montanagade 66, 5. TH",8000 Aarhus C,2010000,2015-12-03,Alm. Salg,36545.0,2.0,Lejlighed,55.0,1897.0,0.0,8000,10.1997,56.145382
"Finderupvej 2K, 2. TH",8000 Aarhus C,1700000,2015-12-03,Alm. Salg,28813.0,2.0,Lejlighed,59.0,2009.0,0.0,8000,10.181474,56.1555
"Bernhardt Jensens Boulevard 89, 6. TH",8000 Aarhus C,3249000,2015-12-03,Alm. Salg,33843.0,3.0,Lejlighed,96.0,2016.0,0.0,8000,10.22547,56.165587
"Ceres Allé 7, 17. 6",8000 Aarhus C,3925000,2015-12-03,Alm. Salg,40463.0,3.0,Lejlighed,97.0,2016.0,0.0,8000,10.191218,56.154591
"Klostertorvet 11, 1. 11",8000 Aarhus C,1775000,2015-12-03,Alm. Salg,40340.0,2.0,Lejlighed,44.0,2015.0,0.0,8000,10.20583,56.158084
"Dagmar Petersens Gade 102, 2. 3",8000 Aarhus C,6000000,2015-12-03,Alm. Salg,35928.0,3.0,Lejlighed,167.0,2016.0,0.0,8000,10.227376,56.167256
"Mariane Thomsens Gade 31, 2. 2",8000 Aarhus C,3148000,2015-12-03,Alm. Salg,28107.0,3.0,Lejlighed,112.0,2013.0,0.0,8000,10.230183,56.165327
"Mariane Thomsens Gade 42, ST. 1",8000 Aarhus C,2548000,2015-12-03,Alm. Salg,30333.0,3.0,Lejlighed,84.0,2013.0,0.0,8000,10.229664,56.164891
"Langenæs Allé 47, ST. MF",8000 Aarhus C,552500,2015-12-02,Fam. Salg,15347.0,1.0,Lejlighed,36.0,1960.0,0.0,8000,10.180962,56.1412
"Teglværksgade 14, 2. TH",8000 Aarhus C,2100000,2015-12-02,Alm. Salg,33870.0,2.0,Lejlighed,62.0,1928.0,-3.0,8000,10.199821,56.159259
"Bernhardt Jensens Boulevard 89, ST. TH",8000 Aarhus C,1899000,2015-12-02,Alm. Salg,24986.0,2.0,Lejlighed,76.0,2016.0,0.0,8000,10.22547,56.165587
"Montanagade 39, 2",8000 Aarhus C,1900000,2015-12-02,Alm. Salg,34545.0,2.0,Lejlighed,55.0,1896.0,-5.0,8000,10.200058,56.146439
"Bernhardt Jensens Boulevard 91, 10. TH",8000 Aarhus C,3899000,2015-12-02,Alm. Salg,38603.0,3.0,Lejlighed,101.0,2016.0,0.0,8000,10.225638,56.165677
"Grete Løchtes Gade 6, ST. TV",8000 Aarhus C,2199000,2015-12-02,Alm. Salg,24988.0,3.0,Lejlighed,88.0,2016.0,0.0,8000,10.22472,56.165726
"F.G.E. Rostrups Vej 1, 1",8000 Aarhus C,2650000,2015-12-01,Alm. Salg,25728.0,4.0,Lejlighed,103.0,1936.0,-4.0,8000,10.187635,56.159718
"Hendrik Pontoppidans Gade 26, KL",8000 Aarhus C,1600000,2015-12-01,Alm. Salg,25000.0,2.0,Lejlighed,64.0,1908.0,0.0,8000,10.205371,56.143287
"Bogensegade 9, 4. TH",8000 Aarhus C,1274000,2015-12-01,Fam. Salg,24980.0,2.0,Lejlighed,51.0,1910.0,0.0,8000,10.201402,56.144058
"Jægergårdsgade 116, ST. 2",8000 Aarhus C,1935000,2015-12-01,Alm. Salg,28880.0,2.0,Lejlighed,67.0,1890.0,-3.0,8000,10.205401,56.147402
"Åhusene 6, 8. 4",8000 Aarhus C,1900000,2015-12-01,Alm. Salg,34545.0,2.0,Lejlighed,55.0,2013.0,0.0,8000,10.187961,56.15303
"Grete Løchtes Gade 6, 1. TH",8000 Aarhus C,2849000,2015-12-01,Alm. Salg,26626.0,3.0,Lejlighed,107.0,2016.0,0.0,8000,10.22472,56.165726
"Mariane Thomsens Gade 39, 7. 2",8000 Aarhus C,2498000,2015-12-01,Alm. Salg,38430.0,2.0,Lejlighed,65.0,2013.0,0.0,8000,10.230616,56.165136
"Bernhardt Jensens Boulevard 89, 5. TV",8000 Aarhus C,3549000,2015-12-01,Alm. Salg,32263.0,4.0,Lejlighed,110.0,2016.0,0.0,8000,10.22547,56.165587
"Klostertorvet 11, 4. 5",8000 Aarhus C,2025000,2015-12-01,Alm. Salg,43085.0,2.0,Lejlighed,47.0,2015.0,0.0,8000,10.20583,56.158084
"Dagmar Petersens Gade 102, 2. 1",8000 Aarhus C,5000000,2015-12-01,Alm. Salg,39370.0,2.0,Lejlighed,127.0,2016.0,0.0,8000,10.227376,56.167256
"Klostertorvet 11, 1. 9",8000 Aarhus C,2100000,2015-12-01,Alm. Salg,37500.0,2.0,Lejlighed,56.0,2015.0,0.0,8000,10.20583,56.158084
"Bernhardt Jensens Boulevard 89, 5. TH",8000 Aarhus C,3199000,2015-12-01,Alm. Salg,33322.0,3.0,Lejlighed,96.0,2016.0,0.0,8000,10.22547,56.165587
"Vestre Ringgade 156, 3. TV",8000 Aarhus C,1905000,2015-11-30,Alm. Salg,26830.0,3.0,Lejlighed,71.0,1948.0,-5.0,8000,10.189404,56.166328
Gentoftevej 14,8000 Aarhus C,12975000,2015-11-30,Alm. Salg,72486.0,4.0,Villa,179.0,1929.0,-2.0,8000,10.196572,56.138628
"Augustenborggade 5, 1. TV",8000 Aarhus C,1400000,2015-11-30,Fam. Salg,22222.0,2.0,Lejlighed,63.0,1938.0,0.0,8000,10.184928,56.146666
"Lundingsgade 13, 2. TH",8000 Aarhus C,2698000,2015-11-30,Alm. Salg,32119.0,3.0,Lejlighed,84.0,1901.0,0.0,8000,10.195437,56.146349
"Søndre Ringgade 79, 3. TV",8000 Aarhus C,1600000,2015-11-29,Fam. Salg,25000.0,2.0,Lejlighed,64.0,1938.0,0.0,8000,10.185614,56.146457
"Falstersgade 10, 4. TH",8000 Aarhus C,1895000,2015-11-27,Alm. Salg,37156.0,2.0,Lejlighed,51.0,1925.0,-4.0,8000,10.200906,56.162991
"Mejlgade 49, 2. TV",8000 Aarhus C,1094491,2015-11-27,Alm. Salg,7600.0,5.0,Lejlighed,144.0,1900.0,0.0,8000,10.212668,56.159767
"Ceres Allé 7, 14. 4",8000 Aarhus C,3150000,2015-11-27,Alm. Salg,36627.0,3.0,Lejlighed,86.0,2016.0,0.0,8000,10.191218,56.154591
"Grete Løchtes Gade 4, 6. TH",8000 Aarhus C,3399000,2015-11-27,Alm. Salg,32371.0,3.0,Lejlighed,105.0,2016.0,0.0,8000,10.224933,56.165603
"Tietgens Plads 11, 4. TV",8000 Aarhus C,4200000,2015-11-26,Alm. Salg,40384.0,3.0,Lejlighed,104.0,1907.0,-1.0,8000,10.202888,56.144187
"Vestre Ringgade 48, 2. TH",8000 Aarhus C,1800000,2015-11-26,Alm. Salg,27272.0,2.0,Lejlighed,66.0,1940.0,0.0,8000,10.183221,56.157433
"Sonnesgade 17, 2. TV",8000 Aarhus C,1865000,2015-11-26,Alm. Salg,32155.0,2.0,Lejlighed,58.0,1918.0,-2.0,8000,10.194164,56.150175
"Ingerslevs Boulevard 19, 3. TH",8000 Aarhus C,4500000,2015-11-26,Alm. Salg,35433.0,5.0,Lejlighed,127.0,1929.0,0.0,8000,10.192979,56.14409
"Hallssti 7, 1. TV",8000 Aarhus C,3000000,2015-11-26,Alm. Salg,36144.0,3.0,Lejlighed,83.0,2015.0,-2.0,8000,10.201435,56.148734
"Ceres Allé 7, 15. 8",8000 Aarhus C,3400000,2015-11-26,Alm. Salg,37777.0,2.0,Lejlighed,90.0,2016.0,0.0,8000,10.191218,56.154591
"Samsøgade 94, 3",8000 Aarhus C,1925000,2015-11-26,Alm. Salg,32627.0,2.0,Lejlighed,59.0,1897.0,-4.0,8000,10.199899,56.161778
"Montanagade 11, 3",8000 Aarhus C,2298000,2015-11-25,Alm. Salg,35353.0,2.0,Lejlighed,65.0,1900.0,0.0,8000,10.200043,56.147436
"Schleppegrellsgade 8, 4. TH",8000 Aarhus C,1700000,2015-11-25,Alm. Salg,35416.0,2.0,Lejlighed,48.0,1901.0,1.0,8000,10.192675,56.146901
"Ceres Allé 7, 4. 4",8000 Aarhus C,2700000,2015-11-25,Alm. Salg,31395.0,2.0,Lejlighed,86.0,2016.0,0.0,8000,10.191218,56.154591
"Langelandsgade 7, 1. 1",8000 Aarhus C,1548000,2015-11-25,Alm. Salg,32936.0,2.0,Lejlighed,47.0,2011.0,0.0,8000,10.198696,56.158735
"Frederiksbjerg Torv 4, 4. TH",8000 Aarhus C,1580000,2015-11-24,Alm. Salg,35909.0,2.0,Lejlighed,44.0,1901.0,-1.0,8000,10.192916,56.146355
"Klostertorvet 11, 4. 2",8000 Aarhus C,2025000,2015-11-24,Alm. Salg,43085.0,2.0,Lejlighed,47.0,2015.0,0.0,8000,10.20583,56.158084
"Ceres Allé 7, 3. 7",8000 Aarhus C,2700000,2015-11-24,Alm. Salg,28125.0,3.0,Lejlighed,96.0,2016.0,0.0,8000,10.191218,56.154591
"Skovgaardsgade 10, 1. TV",8000 Aarhus C,2725500,2015-11-23,Alm. Salg,32064.0,3.0,Lejlighed,85.0,1928.0,-1.0,8000,10.195344,56.154257
"Sejrøgade 18, 3. TH",8000 Aarhus C,1530000,2015-11-23,Fam. Salg,18214.0,3.0,Lejlighed,84.0,1930.0,0.0,8000,10.197779,56.159912
"Vesterbrogade 24B, ST",8000 Aarhus C,1975000,2015-11-23,Alm. Salg,29924.0,3.0,Lejlighed,66.0,1901.0,-1.0,8000,10.196109,56.158113
Morten Børups Gade 4,8000 Aarhus C,4761000,2015-11-23,Alm. Salg,42508.0,6.0,Rækkehus,112.0,1900.0,2.0,8000,10.197987,56.149721
"Klostertorvet 11, 4. 3",8000 Aarhus C,1775000,2015-11-23,Alm. Salg,35500.0,2.0,Lejlighed,50.0,2015.0,0.0,8000,10.20583,56.158084
"Silkeborgvej 136, 2. TV",8000 Aarhus C,1750000,2015-11-20,Alm. Salg,27777.0,2.0,Lejlighed,63.0,1936.0,0.0,8000,10.179253,56.156527
"Helga Pedersens Gade 9, 5. 1",8000 Aarhus C,4598000,2015-11-20,Alm. Salg,48400.0,4.0,Lejlighed,95.0,2012.0,5.0,8000,10.230149,56.166548
"Mariane Thomsens Gade 50, 1. 2",8000 Aarhus C,2760000,2015-11-20,Alm. Salg,34074.0,2.0,Lejlighed,81.0,2013.0,-1.0,8000,10.23058,56.164941
"Frederiks Allé 28, 1. D",8000 Aarhus C,1875000,2015-11-19,Alm. Salg,27985.0,2.0,Lejlighed,67.0,1986.0,-5.0,8000,10.199024,56.150632
"Klostertorvet 11, 3. 9",8000 Aarhus C,2175000,2015-11-19,Alm. Salg,38839.0,2.0,Lejlighed,56.0,2015.0,0.0,8000,10.20583,56.158084
"Ceres Allé 7, 10. 4",8000 Aarhus C,2950000,2015-11-19,Alm. Salg,34302.0,3.0,Lejlighed,86.0,2016.0,0.0,8000,10.191218,56.154591
Stadion Allé 43A,8000 Aarhus C,8700000,2015-11-18,Alm. Salg,52409.0,6.0,Villa,166.0,1932.0,0.0,8000,10.195511,56.138841
"Klostertorvet 11, 2. 11",8000 Aarhus C,1800000,2015-11-18,Alm. Salg,40909.0,2.0,Lejlighed,44.0,2015.0,0.0,8000,10.20583,56.158084
"Vestervang 24, ST. TH",8000 Aarhus C,1850000,2015-11-18,Alm. Salg,28461.0,2.0,Lejlighed,65.0,1986.0,0.0,8000,10.193677,56.164
"Grete Løchtes Gade 6, 5. TH",8000 Aarhus C,3199000,2015-11-18,Alm. Salg,32313.0,3.0,Lejlighed,99.0,2016.0,0.0,8000,10.22472,56.165726
"Heibergsgade 3, 2",8000 Aarhus C,3350000,2015-11-17,Alm. Salg,31018.0,4.0,Lejlighed,108.0,1896.0,-6.0,8000,10.208173,56.147128
"Gebauersgade 2, 3. 19",8000 Aarhus C,1325000,2015-11-17,Alm. Salg,29444.0,1.0,Lejlighed,45.0,2004.0,-4.0,8000,10.193972,56.15192
"Vestervang 31, 5. MF",8000 Aarhus C,2248000,2015-11-17,Alm. Salg,33552.0,2.0,Lejlighed,67.0,1983.0,0.0,8000,10.192019,56.164425
"Teglværksgade 14, 4. TV",8000 Aarhus C,1725000,2015-11-17,Alm. Salg,30263.0,2.0,Lejlighed,57.0,1928.0,-1.0,8000,10.199821,56.159259
"Frederiksgade 18, 2. 4",8000 Aarhus C,1600000,2015-11-17,Andet,24242.0,2.0,Lejlighed,66.0,2004.0,0.0,8000,10.206137,56.155891
"Mariane Thomsens Gade 31, 4. 3",8000 Aarhus C,3498000,2015-11-17,Alm. Salg,27328.0,3.0,Lejlighed,128.0,2013.0,0.0,8000,10.230183,56.165327
"Grete Løchtes Gade 6, 4. TV",8000 Aarhus C,2999000,2015-11-17,Alm. Salg,31568.0,3.0,Lejlighed,95.0,2016.0,0.0,8000,10.22472,56.165726
"Vestergade 78, 3. TV",8000 Aarhus C,2225000,2015-11-16,Alm. Salg,29666.0,3.0,Lejlighed,75.0,1927.0,-3.0,8000,10.198421,56.157102
"Strandvejen 8A, 1. TH",8000 Aarhus C,1920000,2015-11-16,Alm. Salg,30476.0,2.0,Lejlighed,63.0,1914.0,-4.0,8000,10.208965,56.147848
"Strandvejen 8, 1",8000 Aarhus C,2350000,2015-11-16,Alm. Salg,27976.0,3.0,Lejlighed,84.0,1898.0,-2.0,8000,10.209,56.147933
"Lundbyesgade 11, 4. TH",8000 Aarhus C,1837500,2015-11-16,Alm. Salg,34669.0,2.0,Lejlighed,53.0,1927.0,-1.0,8000,10.195766,56.155219
"Nordborggade 1, 1. TV",8000 Aarhus C,2325000,2015-11-16,Alm. Salg,28012.0,3.0,Lejlighed,83.0,1958.0,0.0,8000,10.186859,56.143902
"Dagmar Petersens Gade 94, 3. 3",8000 Aarhus C,4450000,2015-11-16,Alm. Salg,39380.0,2.0,Lejlighed,113.0,2016.0,0.0,8000,10.227889,56.166993
"Dagmar Petersens Gade 68, 2. TH",8000 Aarhus C,4649000,2015-11-16,Alm. Salg,29993.0,4.0,Lejlighed,155.0,2016.0,0.0,8000,10.224678,56.165936
"Kirkegårdsvej 11, 1. TH",8000 Aarhus C,1865000,2015-11-15,Alm. Salg,33303.0,2.0,Lejlighed,56.0,1884.0,0.0,8000,10.2107,56.164252
"Langenæs Allé 43, KL",8000 Aarhus C,1993000,2015-11-13,Alm. Salg,24012.0,4.0,Lejlighed,83.0,1968.0,0.0,8000,10.181825,56.141335
Søgade 8B,8000 Aarhus C,2825000,2015-11-13,Alm. Salg,26157.0,4.0,Lejlighed,108.0,1986.0,0.0,8000,10.19832,56.150337
"Viborgvej 25, 1. TH",8000 Aarhus C,2745000,2015-11-13,Alm. Salg,36118.0,3.0,Lejlighed,76.0,1930.0,-2.0,8000,10.190237,56.158439
"Nordborggade 1, 1. TH",8000 Aarhus C,1350000,2015-11-13,Fam. Salg,22500.0,2.0,Lejlighed,60.0,1958.0,0.0,8000,10.186859,56.143902
"Klostertorvet 11, 2. 7",8000 Aarhus C,3400000,2015-11-13,Alm. Salg,39534.0,3.0,Lejlighed,86.0,2015.0,0.0,8000,10.20583,56.158084
"Dagmar Petersens Gade 98, 6. 2",8000 Aarhus C,12200000,2015-11-13,Alm. Salg,48221.0,5.0,Lejlighed,253.0,2016.0,0.0,8000,10.227644,56.167123
"Møllegade 7A, 2. 3",8000 Aarhus C,2098000,2015-11-12,Alm. Salg,32781.0,2.0,Lejlighed,64.0,1995.0,0.0,8000,10.201302,56.156868
"Ewaldsgade 14, 4. TH",8000 Aarhus C,2020000,2015-11-12,Alm. Salg,34827.0,2.0,Lejlighed,58.0,1913.0,-1.0,8000,10.195736,56.148794
"Langenæs Allé 33, 2. TV",8000 Aarhus C,1985000,2015-11-12,Alm. Salg,25448.0,3.0,Lejlighed,78.0,1968.0,0.0,8000,10.182677,56.14117
Rungstedvej 7,8000 Aarhus C,9450000,2015-11-12,Alm. Salg,52500.0,5.0,Rækkehus,180.0,1928.0,-5.0,8000,10.19754,56.139702
"Montanagade 3, 1",8000 Aarhus C,6700000,2015-11-12,Alm. Salg,35263.0,6.0,Lejlighed,190.0,1872.0,0.0,8000,10.200052,56.147733
"Janus La Cours Gade 3, 2. TH",8000 Aarhus C,1530000,2015-11-12,Fam. Salg,26379.0,2.0,Lejlighed,58.0,1928.0,0.0,8000,10.197961,56.157538
Skovvejen 123B,8000 Aarhus C,2325000,2015-11-11,Alm. Salg,29430.0,2.0,Lejlighed,79.0,2009.0,-1.0,8000,10.218314,56.168104
"Marselis Boulevard 65, 2. TV",8000 Aarhus C,2398000,2015-11-11,Alm. Salg,38063.0,3.0,Lejlighed,63.0,1933.0,0.0,8000,10.193454,56.139889
"Teglværksgade 18, 1. TH",8000 Aarhus C,2075000,2015-11-11,Alm. Salg,33467.0,2.0,Lejlighed,62.0,1928.0,-1.0,8000,10.199933,56.159487
"Jægergårdsgade 114A, 1. TV",8000 Aarhus C,1800000,2015-11-11,Alm. Salg,31034.0,2.0,Lejlighed,58.0,2004.0,-4.0,8000,10.204764,56.148181
"Ceres Allé 7, 13. 1",8000 Aarhus C,3225000,2015-11-11,Alm. Salg,36235.0,3.0,Lejlighed,89.0,2016.0,0.0,8000,10.191218,56.154591
"Vestre Ringgade 198, 4. TH",8000 Aarhus C,977500,2015-11-11,Fam. Salg,16853.0,2.0,Lejlighed,58.0,1951.0,0.0,8000,10.193583,56.16866
"Marselis Boulevard 34, 14. MF",8000 Aarhus C,1050000,2015-11-10,Alm. Salg,22826.0,1.0,Lejlighed,46.0,1967.0,-4.0,8000,10.198517,56.141161
"Ny Munkegade 68, 3. TH",8000 Aarhus C,1925000,2015-11-10,Alm. Salg,35000.0,3.0,Lejlighed,55.0,1900.0,-4.0,8000,10.202176,56.163378
"Kirkegårdsvej 9, 1. TH",8000 Aarhus C,1800000,2015-11-10,Alm. Salg,39130.0,2.0,Lejlighed,46.0,1884.0,0.0,8000,10.210631,56.164203
"Kirkegårdsvej 9, 1. TV",8000 Aarhus C,1840000,2015-11-10,Alm. Salg,32857.0,2.0,Lejlighed,56.0,1884.0,0.0,8000,10.210631,56.164203
"Bernhardt Jensens Boulevard 123, 7. 3",8000 Aarhus C,7800000,2015-11-10,Alm. Salg,44571.0,3.0,Lejlighed,175.0,2017.0,0.0,8000,10.227451,56.166812
"Nørrebrogade 20F, ST. TH",8000 Aarhus C,2400000,2015-11-10,Alm. Salg,33802.0,3.0,Lejlighed,71.0,2015.0,-4.0,8000,10.211548,56.163617
Valdemarsgade 25,8000 Aarhus C,4780000,2015-11-09,Alm. Salg,36769.0,4.0,Rækkehus,130.0,1890.0,-4.0,8000,10.19802,56.15092
"Knudrisgade 18, 1",8000 Aarhus C,2400000,2015-11-09,Alm. Salg,27906.0,4.0,Lejlighed,86.0,1872.0,-4.0,8000,10.21288,56.162649
"Fåborggade 12, ST",8000 Aarhus C,3100000,2015-11-09,Alm. Salg,33695.0,3.0,Lejlighed,92.0,1911.0,-6.0,8000,10.202457,56.143675
"Klostertorvet 11, 3. 4",8000 Aarhus C,2025000,2015-11-09,Alm. Salg,41326.0,2.0,Lejlighed,49.0,2015.0,0.0,8000,10.20583,56.158084
"Grønnegade 82, 3. 20",8000 Aarhus C,1480000,2015-11-08,Alm. Salg,29019.0,2.0,Lejlighed,51.0,1970.0,-3.0,8000,10.199785,56.16098
"Vestervang 30, 5. MF",8000 Aarhus C,2248000,2015-11-08,Alm. Salg,33058.0,2.0,Lejlighed,68.0,1983.0,0.0,8000,10.192238,56.164386
"Max Müllers Gade 2B, 1. TH",8000 Aarhus C,2900000,2015-11-08,Alm. Salg,27884.0,3.0,Lejlighed,104.0,1927.0,-4.0,8000,10.189903,56.144978
"Jægergårdsgade 116, 2. 5",8000 Aarhus C,2000000,2015-11-08,Alm. Salg,29850.0,2.0,Lejlighed,67.0,1890.0,-2.0,8000,10.205401,56.147402
"Marselis Boulevard 38, 3. 301",8000 Aarhus C,1995000,2015-11-06,Alm. Salg,27328.0,2.0,Lejlighed,73.0,1966.0,0.0,8000,10.196882,56.140993
"Vesterbrogade 9, 4. TH",8000 Aarhus C,2450000,2015-11-06,Alm. Salg,26344.0,4.0,Lejlighed,93.0,1929.0,-12.0,8000,10.196985,56.157876
"Klostertorvet 11, 2. 12",8000 Aarhus C,1825000,2015-11-06,Alm. Salg,40555.0,2.0,Lejlighed,45.0,2015.0,0.0,8000,10.20583,56.158084
"Ceres Allé 7, 19",8000 Aarhus C,8600000,2015-11-06,Alm. Salg,62318.0,4.0,Lejlighed,138.0,2016.0,0.0,8000,10.191218,56.154591
"Høegh-Guldbergs Gade 123, 2. TV",8000 Aarhus C,2575000,2015-11-05,Alm. Salg,34333.0,3.0,Lejlighed,75.0,1897.0,-1.0,8000,10.203457,56.164471
"Silkeborgvej 110, 1. TV",8000 Aarhus C,1650000,2015-11-05,Alm. Salg,26190.0,2.0,Lejlighed,63.0,1935.0,-6.0,8000,10.180817,56.156809
"Hans Schourups Gade 8, 4. TV",8000 Aarhus C,2016000,2015-11-05,Alm. Salg,28800.0,2.0,Lejlighed,70.0,1935.0,1.0,8000,10.191557,56.141619
"Janus La Cours Gade 6, 2. TV",8000 Aarhus C,1998000,2015-11-04,Alm. Salg,35678.0,2.0,Lejlighed,56.0,1928.0,0.0,8000,10.197654,56.157595
"Mejlgade 43B, 2",8000 Aarhus C,2065000,2015-11-04,Alm. Salg,32265.0,2.0,Lejlighed,64.0,1827.0,-2.0,8000,10.21221,56.159475
"Kaserneboulevarden 27, 1",8000 Aarhus C,6200000,2015-11-04,Alm. Salg,22222.0,9.0,Villa,279.0,1915.0,12.0,8000,10.197879,56.164354
"Kirkegårdsvej 7, 1. TH",8000 Aarhus C,1865000,2015-11-04,Alm. Salg,32719.0,2.0,Lejlighed,57.0,1886.0,0.0,8000,10.210506,56.164128
"Søndre Ringgade 63, 1. TV",8000 Aarhus C,1020000,2015-11-03,Fam. Salg,15692.0,2.0,Lejlighed,65.0,1938.0,0.0,8000,10.186533,56.145576
"Søgade 1B, 2. TV",8000 Aarhus C,2025000,2015-11-03,Alm. Salg,38942.0,2.0,Lejlighed,52.0,2006.0,-3.0,8000,10.198419,56.150107
"Tage-Hansens Gade 11, 3. TV",8000 Aarhus C,1320000,2015-11-03,Fam. Salg,16708.0,3.0,Lejlighed,79.0,1945.0,0.0,8000,10.184193,56.157855
"Ankersgade 7, 4. TH",8000 Aarhus C,1630000,2015-11-03,Alm. Salg,33958.0,2.0,Lejlighed,48.0,1900.0,-4.0,8000,10.192624,56.148272
"Helga Pedersens Gade 5, ST. 2",8000 Aarhus C,2550000,2015-11-03,Alm. Salg,38059.0,2.0,Lejlighed,67.0,2014.0,-2.0,8000,10.2294,56.16676
"Hedemannsgade 14, 3. TH",8000 Aarhus C,1750000,2015-11-02,Alm. Salg,33018.0,2.0,Lejlighed,53.0,1911.0,-3.0,8000,10.191397,56.146904
F.G.E. Rostrups Vej 2,8000 Aarhus C,3100000,2015-11-02,Andet,25203.0,4.0,Villa,123.0,1923.0,0.0,8000,10.188374,56.159509
"Steinmannsgade 3, 1. TV",8000 Aarhus C,2100000,2015-11-02,Alm. Salg,33870.0,2.0,Lejlighed,62.0,1917.0,-3.0,8000,10.190642,56.145941
"Lundingsgade 15, 3. TH",8000 Aarhus C,2148000,2015-11-02,Alm. Salg,33562.0,2.0,Lejlighed,64.0,1901.0,0.0,8000,10.195436,56.146227
"Finderupvej 2M, 2. 5",8000 Aarhus C,2250000,2015-11-02,Alm. Salg,32142.0,2.0,Lejlighed,70.0,2009.0,0.0,8000,10.181402,56.155227
"Østboulevarden 33, 2",8000 Aarhus C,1300000,2015-11-02,Fam. Salg,24074.0,2.0,Lejlighed,54.0,1898.0,0.0,8000,10.212471,56.164832
"Klostertorvet 11, 3. 8",8000 Aarhus C,2230000,2015-11-02,Alm. Salg,35396.0,2.0,Lejlighed,63.0,2015.0,0.0,8000,10.20583,56.158084
"Eckersbergsgade 19, 1. TV",8000 Aarhus C,2230000,2015-11-01,Alm. Salg,32794.0,2.0,Lejlighed,68.0,1936.0,-1.0,8000,10.195882,56.151776
"Vestervang 41, 5. 4157",8000 Aarhus C,4030000,2015-10-31,Alm. Salg,27046.0,3.0,Lejlighed,149.0,1969.0,-4.0,8000,10.189107,56.165055
"Sølystgade 36, 2",8000 Aarhus C,1720260,2015-10-30,Fam. Salg,30718.0,2.0,Lejlighed,56.0,1898.0,0.0,8000,10.204922,56.162094
"Ringkøbingvej 6, ST. TH",8000 Aarhus C,1735000,2015-10-30,Alm. Salg,29406.0,2.0,Lejlighed,59.0,1939.0,-4.0,8000,10.189129,56.157111
"Søndre Ringgade 13, 1. TV",8000 Aarhus C,2725000,2015-10-30,Alm. Salg,33231.0,3.0,Lejlighed,82.0,1933.0,-1.0,8000,10.192652,56.141577
"Schleppegrellsgade 27, 4",8000 Aarhus C,1898000,2015-10-30,Alm. Salg,26000.0,3.0,Lejlighed,73.0,1913.0,0.0,8000,10.191822,56.147664
"Kaløgade 2, 4. TH",8000 Aarhus C,1630000,2015-10-30,Alm. Salg,32600.0,2.0,Lejlighed,50.0,1902.0,-4.0,8000,10.21419,56.161747
"Sjællandsgade 119A, 3. TH",8000 Aarhus C,1575000,2015-10-30,Alm. Salg,33510.0,2.0,Lejlighed,47.0,1899.0,0.0,8000,10.202856,56.16347
"Klostertorvet 11, 2. 2",8000 Aarhus C,1975000,2015-10-30,Alm. Salg,37980.0,2.0,Lejlighed,52.0,2015.0,0.0,8000,10.20583,56.158084
"Ceres Allé 7, 18. 2",8000 Aarhus C,5900000,2015-10-30,Alm. Salg,44029.0,4.0,Lejlighed,134.0,2016.0,0.0,8000,10.191218,56.154591
"Klostertorvet 11, 2. 10",8000 Aarhus C,2335000,2015-10-30,Alm. Salg,35923.0,2.0,Lejlighed,65.0,2015.0,0.0,8000,10.20583,56.158084
"Søndre Ringgade 7, KL",8000 Aarhus C,1655000,2015-10-29,Alm. Salg,17061.0,4.0,Lejlighed,97.0,1933.0,-5.0,8000,10.193184,56.141253
"Langenæs Allé 43, ST. TV",8000 Aarhus C,2098000,2015-10-29,Alm. Salg,27605.0,3.0,Lejlighed,76.0,1968.0,0.0,8000,10.181825,56.141335
"Nordborggade 29, 3. 4",8000 Aarhus C,828000,2015-10-28,Fam. Salg,21789.0,1.0,Lejlighed,38.0,1960.0,0.0,8000,10.185683,56.144848
Rungstedvej 5,8000 Aarhus C,1270000,2015-10-28,Alm. Salg,7055.0,7.0,Rækkehus,180.0,1929.0,0.0,8000,10.197699,56.139727
"Nordborggade 14, 2. TV",8000 Aarhus C,2150000,2015-10-28,Alm. Salg,27922.0,3.0,Lejlighed,77.0,1944.0,-3.0,8000,10.186476,56.144723
"Vestervang 9, 1. 912",8000 Aarhus C,2110000,2015-10-28,Alm. Salg,29718.0,2.0,Lejlighed,71.0,1970.0,-4.0,8000,10.193816,56.162228
"Langenæs Allé 41, ST. MF",8000 Aarhus C,1765000,2015-10-28,Alm. Salg,30431.0,2.0,Lejlighed,58.0,1968.0,-2.0,8000,10.182081,56.1414
"Vestre Ringgade 202, ST. TV",8000 Aarhus C,2000000,2015-10-28,Alm. Salg,23529.0,3.0,Lejlighed,85.0,1948.0,0.0,8000,10.193957,56.168818
"Vestre Ringgade 48, ST. TV",8000 Aarhus C,1250000,2015-10-27,Fam. Salg,18939.0,2.0,Lejlighed,66.0,1940.0,0.0,8000,10.183221,56.157433
"Sjællandsgade 119B, 2. TH",8000 Aarhus C,1500000,2015-10-27,Alm. Salg,30000.0,2.0,Lejlighed,50.0,1899.0,0.0,8000,10.202826,56.163561
"Klostertorvet 11, 1. 5",8000 Aarhus C,1950000,2015-10-27,Alm. Salg,39000.0,2.0,Lejlighed,50.0,2015.0,0.0,8000,10.20583,56.158084
"Finderupvej 2L, 1. 2",8000 Aarhus C,2100000,2015-10-27,Alm. Salg,29577.0,2.0,Lejlighed,71.0,2009.0,0.0,8000,10.181397,56.155402
"Finderupvej 2M, 2. 2",8000 Aarhus C,2050000,2015-10-27,Alm. Salg,31538.0,2.0,Lejlighed,65.0,2009.0,0.0,8000,10.181402,56.155227
"Klostertorvet 11, 3. 5",8000 Aarhus C,2025000,2015-10-27,Alm. Salg,40500.0,2.0,Lejlighed,50.0,2015.0,0.0,8000,10.20583,56.158084
"Klostertorvet 11, 1. 4",8000 Aarhus C,1950000,2015-10-27,Alm. Salg,39795.0,2.0,Lejlighed,49.0,2015.0,0.0,8000,10.20583,56.158084
"Klostertorvet 11, 2. 5",8000 Aarhus C,1975000,2015-10-27,Alm. Salg,39500.0,2.0,Lejlighed,50.0,2015.0,0.0,8000,10.20583,56.158084
"Ceres Allé 7, 1. 2",8000 Aarhus C,2950000,2015-10-27,Alm. Salg,28095.0,3.0,Lejlighed,105.0,2016.0,0.0,8000,10.191218,56.154591
"Bissensgade 13, ST. TH",8000 Aarhus C,1925000,2015-10-26,Alm. Salg,32627.0,2.0,Lejlighed,59.0,1920.0,-1.0,8000,10.196532,56.15509
"Klostertorvet 11, 2. 4",8000 Aarhus C,1975000,2015-10-26,Alm. Salg,40306.0,2.0,Lejlighed,49.0,2015.0,0.0,8000,10.20583,56.158084
"Ceres Allé 7, 17. 8",8000 Aarhus C,3550000,2015-10-26,Alm. Salg,39444.0,2.0,Lejlighed,90.0,2016.0,0.0,8000,10.191218,56.154591
"Heibergsgade 27, 2. TH",8000 Aarhus C,5200000,2015-10-23,Alm. Salg,34899.0,4.0,Lejlighed,149.0,1908.0,0.0,8000,10.207921,56.145854
Strandvejen 126A,8000 Aarhus C,7000000,2015-10-23,Alm. Salg,42424.0,3.0,Villa,165.0,1962.0,-11.0,8000,10.212232,56.128726
Absalonsgade 4,8000 Aarhus C,2700000,2015-10-23,Fam. Salg,31764.0,3.0,Rækkehus,85.0,1884.0,0.0,8000,10.194125,56.14708
"Nordborggade 3, 1. TV",8000 Aarhus C,1675000,2015-10-23,Alm. Salg,27459.0,2.0,Lejlighed,61.0,1958.0,2.0,8000,10.186706,56.14398
"Skolegade 24, 1",8000 Aarhus C,1800000,2015-10-22,Alm. Salg,25714.0,2.0,Lejlighed,70.0,1831.0,0.0,8000,10.211502,56.155232
"Læssøesgade 45, 3. TV",8000 Aarhus C,1868000,2015-10-22,Alm. Salg,30129.0,2.0,Lejlighed,62.0,1913.0,0.0,8000,10.19166,56.147679
"Vestervang 7, 3. 731",8000 Aarhus C,4000000,2015-10-22,Alm. Salg,34482.0,4.0,Lejlighed,116.0,1970.0,-5.0,8000,10.195057,56.162028
"Møllegade 7B, 1. TV",8000 Aarhus C,2475000,2015-10-22,Alm. Salg,31730.0,3.0,Lejlighed,78.0,1995.0,0.0,8000,10.201336,56.156908
"Helga Pedersens Gade 5, 1. 1",8000 Aarhus C,4198000,2015-10-22,Alm. Salg,38513.0,4.0,Lejlighed,109.0,2014.0,0.0,8000,10.2294,56.16676
"Vestervang 28, 3. TV",8000 Aarhus C,3098000,2015-10-21,Alm. Salg,32957.0,3.0,Lejlighed,94.0,1983.0,0.0,8000,10.19277,56.164296
"Tage-Hansens Gade 15, 4. MF",8000 Aarhus C,1040000,2015-10-21,Fam. Salg,18245.0,2.0,Lejlighed,57.0,1945.0,0.0,8000,10.184218,56.158124
"Høegh-Guldbergs Gade 139, 4. TH",8000 Aarhus C,2050000,2015-10-21,Alm. Salg,31538.0,2.0,Lejlighed,65.0,1938.0,-7.0,8000,10.202199,56.164892
"Åparken 2, 3. 10",8000 Aarhus C,900000,2015-10-21,Alm. Salg,28125.0,1.0,Lejlighed,32.0,1999.0,0.0,8000,10.186038,56.154104
"Brammersgade 66, 3",8000 Aarhus C,2698000,2015-10-21,Alm. Salg,37472.0,2.0,Lejlighed,72.0,1896.0,0.0,8000,10.206834,56.147235
"Eckersbergsgade 21, 1. TH",8000 Aarhus C,1480000,2015-10-21,Alm. Salg,29600.0,1.0,Lejlighed,50.0,1936.0,-1.0,8000,10.195849,56.151682
"Rosensgade 30B, 2. TH",8000 Aarhus C,1850000,2015-10-21,Alm. Salg,25342.0,3.0,Lejlighed,73.0,1846.0,-2.0,8000,10.209835,56.158105
"Ingerslevs Plads 1B, 5",8000 Aarhus C,3500000,2015-10-20,Alm. Salg,40229.0,3.0,Lejlighed,87.0,1911.0,-1.0,8000,10.199933,56.144858
"Skovvejen 69, 2",8000 Aarhus C,2550000,2015-10-20,Alm. Salg,35915.0,3.0,Lejlighed,71.0,1876.0,-2.0,8000,10.217955,56.166369
Mejlgade 38,8000 Aarhus C,7900000,2015-10-20,Alm. Salg,60769.0,6.0,Villa,130.0,1801.0,0.0,8000,10.212386,56.159204
"Banegårdsgade 1, 2. 13",8000 Aarhus C,2100000,2015-10-20,Alm. Salg,23333.0,4.0,Lejlighed,90.0,1956.0,-8.0,8000,10.200121,56.150661
"Stadion Allé 12, 3. TH",8000 Aarhus C,3048000,2015-10-20,Alm. Salg,33494.0,3.0,Lejlighed,91.0,1928.0,0.0,8000,10.193793,56.143426
"Klostertorvet 11, 3. 12",8000 Aarhus C,1875000,2015-10-20,Alm. Salg,41666.0,2.0,Lejlighed,45.0,2015.0,0.0,8000,10.20583,56.158084
"Mariane Thomsens Gade 42, 4. 2",8000 Aarhus C,2475000,2015-10-20,Alm. Salg,31730.0,2.0,Lejlighed,78.0,2013.0,-4.0,8000,10.229664,56.164891
"Regenburgsgade 12, ST. TH",8000 Aarhus C,2005000,2015-10-19,Alm. Salg,27094.0,3.0,Lejlighed,74.0,1938.0,-7.0,8000,10.183254,56.157213
"Banegårdsgade 16, 2. D4",8000 Aarhus C,1062500,2015-10-19,Fam. Salg,16601.0,2.0,Lejlighed,64.0,1962.0,0.0,8000,10.200827,56.150326
Søgade 6B,8000 Aarhus C,1738000,2015-10-19,Alm. Salg,29965.0,2.0,Lejlighed,58.0,1986.0,-1.0,8000,10.198311,56.150391
"Fiskergyde 15, 2",8000 Aarhus C,1600000,2015-10-19,Alm. Salg,25000.0,3.0,Lejlighed,64.0,1900.0,0.0,8000,10.20801,56.155225
"Steinmannsgade 6, ST",8000 Aarhus C,3275000,2015-10-19,Alm. Salg,31190.0,4.0,Lejlighed,105.0,1915.0,0.0,8000,10.190783,56.146245
"Åhusene 6, 6. 5",8000 Aarhus C,2200000,2015-10-19,Alm. Salg,37931.0,2.0,Lejlighed,58.0,2013.0,0.0,8000,10.187961,56.15303
"Åhusene 7, 2. 4",8000 Aarhus C,2068000,2015-10-19,Alm. Salg,37600.0,2.0,Lejlighed,55.0,2013.0,-1.0,8000,10.187806,56.15273
"Dagmar Petersens Gade 94, 5. 3",8000 Aarhus C,4550000,2015-10-19,Alm. Salg,40265.0,2.0,Lejlighed,113.0,2016.0,0.0,8000,10.227889,56.166993
"Ceres Allé 7, 12. 4",8000 Aarhus C,3050000,2015-10-19,Alm. Salg,35465.0,3.0,Lejlighed,86.0,2016.0,0.0,8000,10.191218,56.154591
"Ceres Allé 7, 18. 1",8000 Aarhus C,8300000,2015-10-19,Alm. Salg,43005.0,6.0,Lejlighed,193.0,2016.0,0.0,8000,10.191218,56.154591
"Silkeborgvej 128, ST. TV",8000 Aarhus C,1720000,2015-10-18,Alm. Salg,28196.0,2.0,Lejlighed,61.0,1938.0,-4.0,8000,10.179799,56.156666
"Vestre Ringgade 222, 1. TV",8000 Aarhus C,2498000,2015-10-17,Alm. Salg,29046.0,3.0,Lejlighed,86.0,1947.0,0.0,8000,10.196299,56.169676
"Ceres Allé 7, 15. 7",8000 Aarhus C,3725000,2015-10-17,Alm. Salg,38802.0,4.0,Lejlighed,96.0,2016.0,0.0,8000,10.191218,56.154591
"Sjællandsgade 119, 3",8000 Aarhus C,2450000,2015-10-16,Alm. Salg,28823.0,4.0,Lejlighed,85.0,1891.0,-6.0,8000,10.203383,56.163744
Mariane Thomsens Gade 33,8000 Aarhus C,1895000,2015-10-16,Alm. Salg,29609.0,2.0,Lejlighed,64.0,2013.0,0.0,8000,10.230315,56.165278
"Mariane Thomsens Gade 36, 1. 3",8000 Aarhus C,2098000,2015-10-16,Alm. Salg,27246.0,2.0,Lejlighed,77.0,2013.0,0.0,8000,10.229845,56.165174
"Ceres Allé 7, 10. 1",8000 Aarhus C,2575000,2015-10-16,Alm. Salg,34797.0,2.0,Lejlighed,74.0,2016.0,0.0,8000,10.191218,56.154591
"Jerichausgade 17, ST. TV",8000 Aarhus C,1975000,2015-10-15,Alm. Salg,30384.0,2.0,Lejlighed,65.0,1930.0,-1.0,8000,10.195463,56.15475
"Heibergsgade 3, 3",8000 Aarhus C,2900000,2015-10-14,Alm. Salg,29000.0,3.0,Lejlighed,100.0,1896.0,-8.0,8000,10.208173,56.147128
"Langenæs Allé 33, ST. TH",8000 Aarhus C,2070000,2015-10-13,Alm. Salg,27236.0,3.0,Lejlighed,76.0,1968.0,0.0,8000,10.182677,56.14117
"Åhusene 5, ST. 3",8000 Aarhus C,1063000,2015-10-13,Fam. Salg,20442.0,2.0,Lejlighed,52.0,2013.0,0.0,8000,10.188483,56.152634
"Bülowsgade 46, 1",8000 Aarhus C,1850000,2015-10-12,Alm. Salg,36274.0,2.0,Lejlighed,51.0,1890.0,0.0,8000,10.201977,56.146452
"Vester Allé 27, 2. TV",8000 Aarhus C,2135000,2015-10-12,Fam. Salg,21565.0,3.0,Lejlighed,99.0,1927.0,0.0,8000,10.198707,56.157194
"Vestervang 24, 4. TH",8000 Aarhus C,3150000,2015-10-12,Alm. Salg,31500.0,3.0,Lejlighed,100.0,1986.0,0.0,8000,10.193677,56.164
"Ceres Allé 7, 13. 7",8000 Aarhus C,3575000,2015-10-12,Alm. Salg,37239.0,4.0,Lejlighed,96.0,2016.0,0.0,8000,10.191218,56.154591
"Ceres Allé 7, 3. 8",8000 Aarhus C,2600000,2015-10-12,Alm. Salg,28888.0,3.0,Lejlighed,90.0,2016.0,0.0,8000,10.191218,56.154591
"Ceres Allé 7, 13. 8",8000 Aarhus C,3250000,2015-10-12,Alm. Salg,36111.0,3.0,Lejlighed,90.0,2016.0,0.0,8000,10.191218,56.154591
Ordrupvej 26,8000 Aarhus C,6600000,2015-10-11,Alm. Salg,50000.0,4.0,Villa,132.0,1934.0,-6.0,8000,10.191885,56.137303
"Thunøgade 19, 1",8000 Aarhus C,3149000,2015-10-10,Alm. Salg,34228.0,3.0,Lejlighed,92.0,1891.0,0.0,8000,10.205377,56.1612
"Mejlgade 36C, 1",8000 Aarhus C,2875000,2015-10-10,Alm. Salg,27912.0,4.0,Lejlighed,103.0,1843.0,-4.0,8000,10.212642,56.159065
"Ceres Allé 7, 14. 1",8000 Aarhus C,2800000,2015-10-09,Alm. Salg,37837.0,2.0,Lejlighed,74.0,2016.0,0.0,8000,10.191218,56.154591
"Mariane Thomsens Gade 48, ST. 2",8000 Aarhus C,1945000,2015-10-09,Alm. Salg,27394.0,2.0,Lejlighed,71.0,2013.0,0.0,8000,10.230334,56.165058
"Åparken 2, 3. 3",8000 Aarhus C,925000,2015-10-08,Alm. Salg,28906.0,1.0,Lejlighed,32.0,1999.0,0.0,8000,10.186038,56.154104
"Åparken 2, 4. 9",8000 Aarhus C,925000,2015-10-08,Alm. Salg,28906.0,1.0,Lejlighed,32.0,1999.0,0.0,8000,10.186038,56.154104
"Ceres Allé 7, 17. 2",8000 Aarhus C,4100000,2015-10-08,Alm. Salg,39805.0,3.0,Lejlighed,103.0,2016.0,0.0,8000,10.191218,56.154591
"Mariane Thomsens Gade 36, 1. 4",8000 Aarhus C,2748000,2015-10-08,Alm. Salg,30533.0,3.0,Lejlighed,90.0,2013.0,0.0,8000,10.229845,56.165174
"Samsøgade 37, ST. TV",8000 Aarhus C,1790000,2015-10-07,Alm. Salg,31403.0,2.0,Lejlighed,57.0,1898.0,-3.0,8000,10.202877,56.162756
"Sejrøgade 12, 1. TV",8000 Aarhus C,1690000,2015-10-07,Alm. Salg,29137.0,2.0,Lejlighed,58.0,1929.0,-6.0,8000,10.198399,56.160023
Thunøgade 9B,8000 Aarhus C,552500,2015-10-07,Fam. Salg,5637.0,3.0,Lejlighed,98.0,1877.0,0.0,8000,10.206319,56.161392
"Østboulevarden 25, 1",8000 Aarhus C,2200000,2015-10-07,Alm. Salg,40740.0,2.0,Lejlighed,54.0,1898.0,0.0,8000,10.212734,56.164659
"Dagmar Petersens Gade 94, 9. 1",8000 Aarhus C,8500000,2015-10-07,Alm. Salg,44270.0,4.0,Lejlighed,192.0,2016.0,0.0,8000,10.227889,56.166993
"Dagmar Petersens Gade 98, 5. 2",8000 Aarhus C,5900000,2015-10-07,Alm. Salg,44029.0,3.0,Lejlighed,134.0,2016.0,0.0,8000,10.227644,56.167123
"Skanderborgvej 35, 3. TV",8000 Aarhus C,1800000,2015-10-06,Alm. Salg,25352.0,2.0,Lejlighed,71.0,1938.0,-2.0,8000,10.183439,56.14035
"Kirkegårdsvej 7, 1. TV",8000 Aarhus C,1825000,2015-10-06,Alm. Salg,38829.0,2.0,Lejlighed,47.0,1886.0,0.0,8000,10.210506,56.164128
"Ceres Allé 7, 9. 7",8000 Aarhus C,3350000,2015-10-06,Alm. Salg,34895.0,4.0,Lejlighed,96.0,2016.0,0.0,8000,10.191218,56.154591
"Marselis Boulevard 134, 1. 2",8000 Aarhus C,1550000,2015-10-05,Alm. Salg,28181.0,2.0,Lejlighed,55.0,1942.0,0.0,8000,10.180569,56.139676
"Dannebrogsgade 3, 1. 2",8000 Aarhus C,3125000,2015-10-05,Alm. Salg,25614.0,5.0,Lejlighed,122.0,1882.0,-1.0,8000,10.194183,56.146177
"Harald Jensens Plads 19, 4. TH",8000 Aarhus C,1325000,2015-10-05,Alm. Salg,13520.0,3.0,Lejlighed,98.0,1935.0,0.0,8000,10.188411,56.143007
"Strandvejen 36, 2. TV",8000 Aarhus C,6350000,2015-10-05,Alm. Salg,36705.0,6.0,Lejlighed,173.0,1908.0,-2.0,8000,10.208505,56.145777
"M.P. Bruuns Gade 41, 2. TV",8000 Aarhus C,1650000,2015-10-05,Alm. Salg,37500.0,2.0,Lejlighed,44.0,1896.0,-7.0,8000,10.2038,56.147651
"Ceres Allé 7, 7. 1",8000 Aarhus C,2925000,2015-10-05,Alm. Salg,32865.0,2.0,Lejlighed,89.0,2016.0,0.0,8000,10.191218,56.154591
"Mariane Thomsens Gade 42, ST. 4",8000 Aarhus C,2598000,2015-10-05,Alm. Salg,30928.0,3.0,Lejlighed,84.0,2013.0,0.0,8000,10.229664,56.164891
"Grønnegade 85, 2. TV",8000 Aarhus C,1700000,2015-10-04,Alm. Salg,31481.0,2.0,Lejlighed,54.0,1917.0,0.0,8000,10.200658,56.159938
"Grønningen 1, ST. TV",8000 Aarhus C,2385000,2015-10-04,Alm. Salg,29444.0,3.0,Lejlighed,81.0,1917.0,-1.0,8000,10.20028,56.160094
"Søndre Ringgade 79, 2. TH",8000 Aarhus C,1561000,2015-10-03,Fam. Salg,24777.0,2.0,Lejlighed,63.0,1938.0,0.0,8000,10.185614,56.146457
"Frederiksgade 48A, ST. 1",8000 Aarhus C,1600000,2015-10-02,Alm. Salg,33333.0,2.0,Lejlighed,48.0,1873.0,-3.0,8000,10.204347,56.155117
"Falstersgade 10A, 4. TH",8000 Aarhus C,2525000,2015-10-02,Alm. Salg,31172.0,3.0,Lejlighed,81.0,1925.0,0.0,8000,10.200677,56.163065
"Ceres Allé 7, 4. 6",8000 Aarhus C,2950000,2015-10-02,Alm. Salg,30412.0,3.0,Lejlighed,97.0,2016.0,0.0,8000,10.191218,56.154591
"Finderupvej 2L, 3. 1",8000 Aarhus C,2450000,2015-10-02,Alm. Salg,30625.0,3.0,Lejlighed,80.0,2009.0,0.0,8000,10.181397,56.155402
"Ankersgade 7, 3. TH",8000 Aarhus C,1625000,2015-10-02,Alm. Salg,29545.0,2.0,Lejlighed,55.0,1900.0,-1.0,8000,10.192624,56.148272
"Klostertorvet 11, 2. 9",8000 Aarhus C,2125000,2015-10-02,Alm. Salg,37946.0,2.0,Lejlighed,56.0,2015.0,0.0,8000,10.20583,56.158084
"Klostertorvet 11, 3. 6",8000 Aarhus C,2125000,2015-10-02,Alm. Salg,37946.0,2.0,Lejlighed,56.0,2015.0,0.0,8000,10.20583,56.158084
"Klostertorvet 11, 1. 2",8000 Aarhus C,1950000,2015-10-02,Alm. Salg,37500.0,2.0,Lejlighed,52.0,2015.0,0.0,8000,10.20583,56.158084
"Bülowsgade 35, ST",8000 Aarhus C,5475000,2015-10-01,Alm. Salg,39388.0,4.0,Lejlighed,139.0,1879.0,0.0,8000,10.202325,56.146879
Paludan-Müllers Vej 11,8000 Aarhus C,3187500,2015-10-01,Fam. Salg,19086.0,4.0,Rækkehus,167.0,1922.0,0.0,8000,10.194102,56.165779
"Grønnegade 87, 2. TV",8000 Aarhus C,1890000,2015-09-30,Alm. Salg,35660.0,2.0,Lejlighed,53.0,1917.0,0.0,8000,10.200526,56.16002
"Marselis Boulevard 28, 2. 1",8000 Aarhus C,3500000,2015-09-30,Alm. Salg,26923.0,5.0,Lejlighed,130.0,1959.0,-4.0,8000,10.201582,56.141796
"Ingerslevs Boulevard 19, 4. TV",8000 Aarhus C,3900000,2015-09-30,Alm. Salg,36792.0,4.0,Lejlighed,106.0,1929.0,0.0,8000,10.192979,56.14409
"Marselis Boulevard 134, ST. 3",8000 Aarhus C,1345000,2015-09-29,Alm. Salg,24454.0,2.0,Lejlighed,55.0,1942.0,-4.0,8000,10.180569,56.139676
"Helgenæsgade 5, 2",8000 Aarhus C,2475000,2015-09-29,Alm. Salg,29819.0,3.0,Lejlighed,83.0,1901.0,-3.0,8000,10.214084,56.162345
"Banegårdsgade 1, 2. 15",8000 Aarhus C,1150000,2015-09-29,Alm. Salg,28750.0,1.0,Lejlighed,40.0,1956.0,0.0,8000,10.200121,56.150661
"Dalgas Avenue 25, 5. TV",8000 Aarhus C,2625000,2015-09-29,Alm. Salg,41015.0,2.0,Lejlighed,64.0,1911.0,0.0,8000,10.202071,56.142978
"Ceres Allé 7, 15. 2",8000 Aarhus C,3950000,2015-09-29,Alm. Salg,38349.0,4.0,Lejlighed,103.0,2016.0,0.0,8000,10.191218,56.154591
"Ceres Allé 7, 13. 2",8000 Aarhus C,3800000,2015-09-29,Alm. Salg,36893.0,4.0,Lejlighed,103.0,2016.0,0.0,8000,10.191218,56.154591
"Regenburgsgade 6, 2. TV",8000 Aarhus C,1640000,2015-09-28,Alm. Salg,24848.0,2.0,Lejlighed,66.0,1945.0,-8.0,8000,10.183928,56.157206
"Vestre Ringgade 50, 5. 4",8000 Aarhus C,150000,2015-09-28,Andet,18750.0,1.0,Lejlighed,8.0,1939.0,0.0,8000,10.183222,56.157545
"Ceres Allé 7, 7. 4",8000 Aarhus C,3125000,2015-09-28,Alm. Salg,31250.0,3.0,Lejlighed,100.0,2016.0,0.0,8000,10.191218,56.154591
"Åparken 8, 1. 4",8000 Aarhus C,2350000,2015-09-28,Alm. Salg,28658.0,3.0,Lejlighed,82.0,2001.0,0.0,8000,10.188255,56.154119
"Ceres Allé 7, 5. 7",8000 Aarhus C,2800000,2015-09-28,Alm. Salg,31111.0,4.0,Lejlighed,90.0,2016.0,0.0,8000,10.191218,56.154591
"Klostertorvet 11, 1. 6",8000 Aarhus C,2050000,2015-09-28,Alm. Salg,36607.0,2.0,Lejlighed,56.0,2015.0,0.0,8000,10.20583,56.158084
"Klostertorvet 11, 2. 8",8000 Aarhus C,2230000,2015-09-28,Alm. Salg,35396.0,2.0,Lejlighed,63.0,2015.0,0.0,8000,10.20583,56.158084
"Vestervang 7, 3. 734",8000 Aarhus C,1500000,2015-09-27,Fam. Salg,20000.0,3.0,Lejlighed,75.0,1970.0,0.0,8000,10.195057,56.162028
"Møllegade 7B, 2. TV",8000 Aarhus C,2498000,2015-09-25,Alm. Salg,32025.0,3.0,Lejlighed,78.0,1995.0,0.0,8000,10.201336,56.156908
"Regenburgsgade 8, 5. TV",8000 Aarhus C,1640000,2015-09-25,Alm. Salg,29285.0,2.0,Lejlighed,56.0,1945.0,-3.0,8000,10.18373,56.157208
Strandvejen 136,8000 Aarhus C,16050000,2015-09-25,Alm. Salg,45467.0,8.0,Villa,353.0,1920.0,-5.0,8000,10.212948,56.127201
"Grønnegade 93, 2. 3",8000 Aarhus C,1885500,2015-09-25,Fam. Salg,32508.0,2.0,Lejlighed,58.0,1922.0,0.0,8000,10.199838,56.160579
"Mariane Thomsens Gade 3, 1. 3",8000 Aarhus C,1998000,2015-09-25,Alm. Salg,30738.0,2.0,Lejlighed,65.0,2016.0,0.0,8000,10.229491,56.165656
"Klostertorvet 11, 3. 1",8000 Aarhus C,1850000,2015-09-25,Alm. Salg,39361.0,2.0,Lejlighed,47.0,2015.0,0.0,8000,10.20583,56.158084
"Silkeborgvej 92, 2. TV",8000 Aarhus C,1600000,2015-09-24,Alm. Salg,25806.0,2.0,Lejlighed,62.0,1933.0,-6.0,8000,10.181947,56.156421
"Marstrandsgade 25, ST. TV",8000 Aarhus C,1712582,2015-09-24,Fam. Salg,20633.0,3.0,Lejlighed,83.0,1931.0,0.0,8000,10.197062,56.154087
"Museumsgade 24, 4",8000 Aarhus C,2420000,2015-09-24,Alm. Salg,35588.0,2.0,Lejlighed,68.0,1900.0,0.0,8000,10.197247,56.15622
"Ny Munkegade 93, ST",8000 Aarhus C,1910000,2015-09-24,Alm. Salg,29843.0,3.0,Lejlighed,64.0,1908.0,-1.0,8000,10.200711,56.164251
"Nørre Allé 80, ST",8000 Aarhus C,2600000,2015-09-24,Alm. Salg,29545.0,3.0,Lejlighed,88.0,1893.0,-4.0,8000,10.201992,56.159539
"Klostertorvet 11, 4. 7",8000 Aarhus C,2875000,2015-09-24,Alm. Salg,39930.0,3.0,Lejlighed,72.0,2015.0,0.0,8000,10.20583,56.158084
"Ceres Allé 7, 17. 7",8000 Aarhus C,3875000,2015-09-24,Alm. Salg,40364.0,4.0,Lejlighed,96.0,2016.0,0.0,8000,10.191218,56.154591
"Klostertorvet 11, 3. 11",8000 Aarhus C,1850000,2015-09-24,Alm. Salg,42045.0,2.0,Lejlighed,44.0,2015.0,0.0,8000,10.20583,56.158084
"Klostertorvet 11, 2. 6",8000 Aarhus C,2075000,2015-09-24,Alm. Salg,37053.0,2.0,Lejlighed,56.0,2015.0,0.0,8000,10.20583,56.158084
Ole Rømers Gade 43,8000 Aarhus C,4200000,2015-09-23,Alm. Salg,31818.0,5.0,Rækkehus,132.0,1886.0,-7.0,8000,10.198211,56.14714
"Vestre Ringgade 56, 3. MF",8000 Aarhus C,1665000,2015-09-23,Alm. Salg,32019.0,2.0,Lejlighed,52.0,1940.0,-2.0,8000,10.183228,56.157914
"Skolebakken 11, 3. TH",8000 Aarhus C,5875000,2015-09-23,Alm. Salg,29375.0,7.0,Lejlighed,200.0,1915.0,0.0,8000,10.212944,56.157855
"Ceres Allé 7, 7. 7",8000 Aarhus C,3250000,2015-09-23,Alm. Salg,33854.0,4.0,Lejlighed,96.0,2016.0,0.0,8000,10.191218,56.154591
"Vestre Ringgade 204, 4. TV",8000 Aarhus C,2275000,2015-09-22,Alm. Salg,27409.0,3.0,Lejlighed,83.0,1950.0,0.0,8000,10.194127,56.168883
"Nørregade 16, ST",8000 Aarhus C,2300000,2015-09-22,Alm. Salg,25274.0,4.0,Lejlighed,91.0,1869.0,-2.0,8000,10.210178,56.161386
"Silkeborgvej 138, 1. TV",8000 Aarhus C,1695000,2015-09-22,Alm. Salg,27786.0,2.0,Lejlighed,61.0,1939.0,0.0,8000,10.179232,56.156653
"Janus La Cours Gade 6, 3. TV",8000 Aarhus C,1948000,2015-09-21,Alm. Salg,34785.0,2.0,Lejlighed,56.0,1928.0,0.0,8000,10.197654,56.157595
"Frederiksgade 48A, ST. 3",8000 Aarhus C,1550000,2015-09-21,Alm. Salg,33695.0,2.0,Lejlighed,46.0,1873.0,-9.0,8000,10.204347,56.155117
"Ny Munkegade 12, ST",8000 Aarhus C,2550000,2015-09-21,Alm. Salg,28977.0,4.0,Lejlighed,88.0,1897.0,-2.0,8000,10.203935,56.160638
"Jerichausgade 9, 4. TH",8000 Aarhus C,2748000,2015-09-21,Alm. Salg,38166.0,3.0,Lejlighed,72.0,1925.0,-2.0,8000,10.196079,56.154488
"Marselis Boulevard 75, 2",8000 Aarhus C,1242065,2015-09-21,Fam. Salg,19108.0,3.0,Lejlighed,65.0,1933.0,0.0,8000,10.193569,56.139322
"Helgolandsgade 29, 3",8000 Aarhus C,1785000,2015-09-21,Alm. Salg,31315.0,1.0,Lejlighed,57.0,1888.0,-5.0,8000,10.201369,56.148326
"Nørrebrogade 20E, 1. TH",8000 Aarhus C,2560000,2015-09-21,Alm. Salg,34133.0,3.0,Lejlighed,75.0,2015.0,-1.0,8000,10.211223,56.163569
"Ceres Allé 7, 9. 4",8000 Aarhus C,3225000,2015-09-21,Alm. Salg,32250.0,3.0,Lejlighed,100.0,2016.0,0.0,8000,10.191218,56.154591
"Østboulevarden 25, 3",8000 Aarhus C,2200000,2015-09-21,Alm. Salg,42307.0,2.0,Lejlighed,52.0,1898.0,0.0,8000,10.212734,56.164659
"Gebauersgade 2, 4. 9",8000 Aarhus C,1698000,2015-09-20,Alm. Salg,30872.0,2.0,Lejlighed,55.0,2004.0,0.0,8000,10.193972,56.15192
"Søndre Ringgade 21, 2. TH",8000 Aarhus C,2165000,2015-09-20,Alm. Salg,30069.0,2.0,Lejlighed,72.0,1934.0,-2.0,8000,10.191901,56.142038
"Tage-Hansens Gade 7, ST. MF",8000 Aarhus C,1520000,2015-09-20,Alm. Salg,27636.0,2.0,Lejlighed,55.0,1945.0,1.0,8000,10.184184,56.157595
"Volden 12, 3",8000 Aarhus C,2100000,2015-09-19,Fam. Salg,20000.0,3.0,Lejlighed,105.0,1883.0,0.0,8000,10.208886,56.158339
"Tage-Hansens Gade 5, 5. TH",8000 Aarhus C,935000,2015-09-19,Fam. Salg,17314.0,2.0,Lejlighed,54.0,1945.0,0.0,8000,10.184174,56.157469
"Marselis Boulevard 34, 1. TV",8000 Aarhus C,2775000,2015-09-18,Alm. Salg,24776.0,3.0,Lejlighed,112.0,1967.0,-1.0,8000,10.198517,56.141161
Lyngbyvej 3,8000 Aarhus C,5150000,2015-09-18,Alm. Salg,45575.0,5.0,Villa,113.0,1938.0,0.0,8000,10.191502,56.137289
"Klostertorvet 11, 1. 7",8000 Aarhus C,2935000,2015-09-18,Alm. Salg,34127.0,3.0,Lejlighed,86.0,2015.0,0.0,8000,10.20583,56.158084
"Ringkøbingvej 30, 1. TV",8000 Aarhus C,2057000,2015-09-17,Fam. Salg,17581.0,4.0,Lejlighed,117.0,1930.0,0.0,8000,10.189627,56.158585
"Søndre Ringgade 10, 1. TH",8000 Aarhus C,1995000,2015-09-17,Alm. Salg,29338.0,2.0,Lejlighed,68.0,1933.0,0.0,8000,10.192426,56.142325
"Bogensegade 9, ST. TH",8000 Aarhus C,1750000,2015-09-17,Alm. Salg,30701.0,2.0,Lejlighed,57.0,1910.0,-5.0,8000,10.201402,56.144058
Montanagade 25,8000 Aarhus C,5700000,2015-09-17,Alm. Salg,40425.0,4.0,Rækkehus,141.0,1880.0,-1.0,8000,10.200012,56.146915
"Ceres Allé 7, 11. 1",8000 Aarhus C,3125000,2015-09-17,Alm. Salg,35112.0,3.0,Lejlighed,89.0,2016.0,0.0,8000,10.191218,56.154591
"Nordborggade 3, 2. TH",8000 Aarhus C,2095000,2015-09-17,Alm. Salg,32734.0,2.0,Lejlighed,64.0,1958.0,0.0,8000,10.186706,56.14398
"Thunøgade 24, 3. TV",8000 Aarhus C,3150000,2015-09-16,Alm. Salg,32474.0,4.0,Lejlighed,97.0,1912.0,-3.0,8000,10.205283,56.161385
"Nordborggade 4, 5. TH",8000 Aarhus C,1900000,2015-09-16,Alm. Salg,32203.0,2.0,Lejlighed,59.0,1944.0,-5.0,8000,10.187113,56.144232
"Vestre Ringgade 224, 2. TH",8000 Aarhus C,2300000,2015-09-16,Alm. Salg,27380.0,3.0,Lejlighed,84.0,1950.0,-2.0,8000,10.196487,56.169737
"Ryesgade 6, 2",8000 Aarhus C,16300000,2015-09-16,Andet,236231.0,4.0,Lejlighed,69.0,1874.0,0.0,8000,10.204914,56.152551
"Finderupvej 2L, 2. 1",8000 Aarhus C,2400000,2015-09-16,Alm. Salg,30000.0,3.0,Lejlighed,80.0,2009.0,0.0,8000,10.181397,56.155402
"Ceres Allé 7, 10. 7",8000 Aarhus C,3750000,2015-09-16,Alm. Salg,34090.0,4.0,Lejlighed,110.0,2016.0,0.0,8000,10.191218,56.154591
"Ceres Allé 7, 11. 7",8000 Aarhus C,3425000,2015-09-16,Alm. Salg,35677.0,4.0,Lejlighed,96.0,2016.0,0.0,8000,10.191218,56.154591
"Klostertorvet 11, 1. 8",8000 Aarhus C,2230000,2015-09-16,Alm. Salg,35396.0,2.0,Lejlighed,63.0,2015.0,0.0,8000,10.20583,56.158084
"Kystvejen 27, 4. TV",8000 Aarhus C,3400000,2015-09-15,Alm. Salg,29565.0,3.0,Lejlighed,115.0,1927.0,-3.0,8000,10.213859,56.159602
"Møllevejen 27, 2. TH",8000 Aarhus C,3150000,2015-09-15,Alm. Salg,30882.0,3.0,Lejlighed,102.0,1969.0,0.0,8000,10.194502,56.159045
"Mariane Thomsens Gade 42, 6. 1",8000 Aarhus C,3398000,2015-09-15,Alm. Salg,33980.0,3.0,Lejlighed,100.0,2013.0,0.0,8000,10.229664,56.164891
"Rudolph Wulffs Gade 12, 5. TV",8000 Aarhus C,2000000,2015-09-14,Alm. Salg,27397.0,2.0,Lejlighed,73.0,1946.0,0.0,8000,10.184897,56.140542
"Fåborggade 7A, 3. TV",8000 Aarhus C,1170000,2015-09-14,Fam. Salg,20172.0,2.0,Lejlighed,58.0,1911.0,0.0,8000,10.203299,56.143455
Skovvejen 115,8000 Aarhus C,4375000,2015-09-14,Alm. Salg,34448.0,5.0,Villa,127.0,1887.0,0.0,8000,10.21819,56.167822
"Mejlgade 89, 3. TV",8000 Aarhus C,2598000,2015-09-14,Alm. Salg,35589.0,3.0,Lejlighed,73.0,1900.0,0.0,8000,10.214593,56.161981
"Mariane Thomsens Gade 36, 2. 2",8000 Aarhus C,2150000,2015-09-14,Alm. Salg,27922.0,2.0,Lejlighed,77.0,2013.0,0.0,8000,10.229845,56.165174
"Falstersgade 42, 1. TH",8000 Aarhus C,1990000,2015-09-13,Alm. Salg,39019.0,2.0,Lejlighed,51.0,1902.0,0.0,8000,10.199632,56.164171
"P.P. Ørums Gade 38, 1. TH",8000 Aarhus C,2160000,2015-09-13,Alm. Salg,28800.0,2.0,Lejlighed,75.0,1937.0,-2.0,8000,10.188339,56.14245
"Strandparken 1, 1. TH",8000 Aarhus C,2398000,2015-09-12,Alm. Salg,33305.0,2.0,Lejlighed,72.0,1935.0,0.0,8000,10.205916,56.145101
"Langelandsgade 31, 2",8000 Aarhus C,2175000,2015-09-12,Alm. Salg,28618.0,3.0,Lejlighed,76.0,1900.0,0.0,8000,10.197762,56.159382
"Grønnegade 87, 4. TV",8000 Aarhus C,2588000,2015-09-12,Alm. Salg,30093.0,3.0,Lejlighed,86.0,1917.0,0.0,8000,10.200526,56.16002
Kriegersvej 11,8000 Aarhus C,3700000,2015-09-12,Alm. Salg,33636.0,3.0,Rækkehus,110.0,1880.0,1.0,8000,10.19963,56.149808
"Lundbyesgade 23, 4. TH",8000 Aarhus C,2900000,2015-09-11,Alm. Salg,33720.0,3.0,Lejlighed,86.0,1925.0,0.0,8000,10.194862,56.154558
"Vesterbrogade 9, 2. TV",8000 Aarhus C,2150000,2015-09-11,Alm. Salg,29054.0,3.0,Lejlighed,74.0,1929.0,-2.0,8000,10.196985,56.157876
"Ceres Allé 7, 16. 7",8000 Aarhus C,4200000,2015-09-11,Alm. Salg,38181.0,4.0,Lejlighed,110.0,2016.0,0.0,8000,10.191218,56.154591
"Ceres Allé 7, 13. 4",8000 Aarhus C,3525000,2015-09-11,Alm. Salg,35250.0,3.0,Lejlighed,100.0,2016.0,0.0,8000,10.191218,56.154591
"Mariane Thomsens Gade 31, 3. 2",8000 Aarhus C,3198000,2015-09-11,Alm. Salg,28553.0,3.0,Lejlighed,112.0,2013.0,0.0,8000,10.230183,56.165327
"Silkeborgvej 122, 2. TV",8000 Aarhus C,1675000,2015-09-10,Alm. Salg,26171.0,2.0,Lejlighed,64.0,1938.0,-1.0,8000,10.17984,56.156356
"Åparken 2, 5. 11",8000 Aarhus C,900000,2015-09-10,Alm. Salg,30000.0,1.0,Lejlighed,30.0,1999.0,0.0,8000,10.186038,56.154104
"Mariane Thomsens Gade 56, 1. 2",8000 Aarhus C,3498000,2015-09-10,Alm. Salg,31800.0,3.0,Lejlighed,110.0,2013.0,0.0,8000,10.230141,56.164837
"Mariane Thomsens Gade 30, 1. 1",8000 Aarhus C,2748000,2015-09-10,Alm. Salg,30197.0,3.0,Lejlighed,91.0,2013.0,0.0,8000,10.229284,56.164931
"Møllegade 7A, ST. 2",8000 Aarhus C,1998000,2015-09-10,Alm. Salg,31218.0,2.0,Lejlighed,64.0,1995.0,0.0,8000,10.201302,56.156868
"Mariane Thomsens Gade 52, 1. 1",8000 Aarhus C,2998000,2015-09-10,Alm. Salg,31893.0,2.0,Lejlighed,94.0,2013.0,0.0,8000,10.229812,56.164682
"Helga Pedersens Gade 3, 2. 3",8000 Aarhus C,2630000,2015-09-10,Alm. Salg,36527.0,2.0,Lejlighed,72.0,2014.0,-1.0,8000,10.229042,56.166559
"Skanderborgvej 94, 1. 4",8000 Aarhus C,1298000,2015-09-09,Alm. Salg,24961.0,2.0,Lejlighed,52.0,1943.0,0.0,8000,10.181465,56.139762
"Regenburgsgade 12, 2. TV",8000 Aarhus C,1280000,2015-09-09,Alm. Salg,26122.0,1.0,Lejlighed,49.0,1938.0,-1.0,8000,10.183254,56.157213
"Skanderborgvej 15, 3. TV",8000 Aarhus C,1500000,2015-09-09,Alm. Salg,23076.0,3.0,Lejlighed,65.0,1939.0,0.0,8000,10.184999,56.141242
"Ceres Allé 7, 12. 8",8000 Aarhus C,2675000,2015-09-09,Alm. Salg,35197.0,2.0,Lejlighed,76.0,2016.0,0.0,8000,10.191218,56.154591
"P.P. Ørums Gade 6, 5. TV",8000 Aarhus C,1898000,2015-09-08,Alm. Salg,28757.0,2.0,Lejlighed,66.0,1935.0,0.0,8000,10.192636,56.140616
"Vestre Ringgade 176, 2. TH",8000 Aarhus C,1675000,2015-09-08,Alm. Salg,25769.0,2.0,Lejlighed,65.0,1948.0,-4.0,8000,10.190966,56.16735
"Ceres Allé 7, 12. 6",8000 Aarhus C,3550000,2015-09-08,Alm. Salg,36597.0,3.0,Lejlighed,97.0,2016.0,0.0,8000,10.191218,56.154591
"Ceres Allé 7, 7. 8",8000 Aarhus C,5900000,2015-09-08,Alm. Salg,65555.0,2.0,Lejlighed,90.0,2016.0,0.0,8000,10.191218,56.154591
"Åhusene 9, 7. 4",8000 Aarhus C,1950000,2015-09-08,Andet,35454.0,2.0,Lejlighed,55.0,2014.0,0.0,8000,10.187249,56.152821
"Høegh-Guldbergs Gade 35, 3. TH",8000 Aarhus C,1785000,2015-09-07,Alm. Salg,30254.0,2.0,Lejlighed,59.0,1936.0,-6.0,8000,10.210456,56.162421
"Absalonsgade 21, 2",8000 Aarhus C,2725000,2015-09-07,Alm. Salg,36333.0,4.0,Lejlighed,75.0,1896.0,0.0,8000,10.19352,56.147401
"Marselis Boulevard 38, 10. 1007",8000 Aarhus C,4400000,2015-09-07,Alm. Salg,34375.0,4.0,Lejlighed,128.0,1966.0,-5.0,8000,10.196882,56.140993
"Frederiksbjerg Torv 3, 1. TH",8000 Aarhus C,1500000,2015-09-07,Alm. Salg,30000.0,2.0,Lejlighed,50.0,1902.0,-6.0,8000,10.192428,56.145951
Valdemarsgade 39,8000 Aarhus C,2550000,2015-09-07,Fam. Salg,18613.0,4.0,Rækkehus,137.0,1900.0,0.0,8000,10.197201,56.150204
"Sønderport 1, 4. TV",8000 Aarhus C,2850000,2015-09-07,Alm. Salg,28500.0,4.0,Lejlighed,100.0,1938.0,-2.0,8000,10.183208,56.140231
"Finderupvej 2D, 1. 6",8000 Aarhus C,2500000,2015-09-07,Alm. Salg,28735.0,3.0,Lejlighed,87.0,2009.0,0.0,8000,10.182226,56.155524
"Åhusene 4, ST. 4",8000 Aarhus C,2060000,2015-09-07,Alm. Salg,37454.0,2.0,Lejlighed,55.0,2011.0,-2.0,8000,10.188655,56.153023
"Mariane Thomsens Gade 36, 2. 1",8000 Aarhus C,3998000,2015-09-07,Alm. Salg,27572.0,5.0,Lejlighed,145.0,2013.0,0.0,8000,10.229845,56.165174
"Ceres Allé 7, 6. 1",8000 Aarhus C,2375000,2015-09-07,Alm. Salg,32094.0,2.0,Lejlighed,74.0,2016.0,0.0,8000,10.191218,56.154591
"Mejlgade 72, 3. TV",8000 Aarhus C,2000000,2015-09-05,Alm. Salg,18518.0,4.0,Lejlighed,108.0,1931.0,0.0,8000,10.213933,56.160914
"Teglværksgade 18, 1. TV",8000 Aarhus C,2098000,2015-09-05,Alm. Salg,33838.0,2.0,Lejlighed,62.0,1928.0,0.0,8000,10.199933,56.159487
"Vestre Ringgade 156, ST. TV",8000 Aarhus C,1530000,2015-09-04,Fam. Salg,18658.0,4.0,Lejlighed,82.0,1948.0,0.0,8000,10.189404,56.166328
"Vestervang 19, 6. MF",8000 Aarhus C,2299000,2015-09-03,Alm. Salg,34313.0,2.0,Lejlighed,67.0,1986.0,0.0,8000,10.195031,56.16378
"Knudrisgade 14, 1",8000 Aarhus C,1750000,2015-09-03,Fam. Salg,26923.0,3.0,Lejlighed,65.0,1869.0,0.0,8000,10.212722,56.162597
"Marselis Boulevard 69, ST. TH",8000 Aarhus C,2298000,2015-09-03,Alm. Salg,35906.0,2.0,Lejlighed,64.0,1933.0,0.0,8000,10.193495,56.139678
"Ankersgade 7, 2. TV",8000 Aarhus C,1600000,2015-09-03,Alm. Salg,30769.0,2.0,Lejlighed,52.0,1900.0,-2.0,8000,10.192624,56.148272
"Søndre Ringgade 57, 2. TH",8000 Aarhus C,1900000,2015-09-03,Alm. Salg,29687.0,2.0,Lejlighed,64.0,1938.0,-2.0,8000,10.187166,56.145067
"Janus La Cours Gade 14, 2. TV",8000 Aarhus C,2375000,2015-09-02,Alm. Salg,35447.0,2.0,Lejlighed,67.0,1984.0,-1.0,8000,10.19706,56.157165
Sjællandsgade 17B,8000 Aarhus C,2325000,2015-09-02,Alm. Salg,38750.0,2.0,Rækkehus,60.0,1869.0,-3.0,8000,10.208482,56.161331
"Vesterport 4, 2",8000 Aarhus C,4350000,2015-09-02,Alm. Salg,35365.0,5.0,Lejlighed,123.0,1863.0,0.0,8000,10.200262,56.157655
"Samsøgade 10, 1",8000 Aarhus C,1898000,2015-09-02,Alm. Salg,35148.0,2.0,Lejlighed,54.0,1894.0,0.0,8000,10.204546,56.163692
"Mariane Thomsens Gade 36, 5. 4",8000 Aarhus C,3348000,2015-09-02,Alm. Salg,32504.0,3.0,Lejlighed,103.0,2013.0,0.0,8000,10.229845,56.165174
Anholtsgade 6,8000 Aarhus C,1300000,2015-09-01,Alm. Salg,39393.0,1.0,Lejlighed,33.0,1876.0,-4.0,8000,10.208711,56.161041
"Ceres Allé 7, 5. 5",8000 Aarhus C,3000000,2015-09-01,Alm. Salg,30927.0,2.0,Lejlighed,97.0,2016.0,0.0,8000,10.191218,56.154591
"Horsensgade 11, 4. TH",8000 Aarhus C,1105000,2015-09-01,Fam. Salg,19051.0,2.0,Lejlighed,58.0,1911.0,0.0,8000,10.194245,56.145291
"Ankersgade 5, ST. TH",8000 Aarhus C,1675000,2015-08-31,Alm. Salg,30454.0,2.0,Lejlighed,55.0,1900.0,0.0,8000,10.192765,56.148338
"Janus La Cours Gade 5, 3. TH",8000 Aarhus C,2300000,2015-08-31,Alm. Salg,28048.0,3.0,Lejlighed,82.0,1928.0,-4.0,8000,10.197821,56.157436
"Ceres Allé 7, 6. 6",8000 Aarhus C,3050000,2015-08-31,Alm. Salg,31443.0,3.0,Lejlighed,97.0,2016.0,0.0,8000,10.191218,56.154591
"Kaserneboulevarden 21, 4. TV",8000 Aarhus C,1640000,2015-08-30,Fam. Salg,21025.0,3.0,Lejlighed,78.0,1933.0,0.0,8000,10.19926,56.164664
"Lundingsgade 22, KL",8000 Aarhus C,1715000,2015-08-28,Alm. Salg,23493.0,3.0,Lejlighed,73.0,1907.0,0.0,8000,10.194977,56.145576
"Silkeborgvej 162, ST. TV",8000 Aarhus C,1535000,2015-08-28,Alm. Salg,28962.0,2.0,Lejlighed,53.0,1939.0,-1.0,8000,10.177799,56.156222
"Strandparken 12, ST. TH",8000 Aarhus C,2300000,2015-08-28,Alm. Salg,31944.0,2.0,Lejlighed,72.0,1935.0,-1.0,8000,10.206521,56.143999
"Ceres Allé 7, 14. 7",8000 Aarhus C,4050000,2015-08-28,Alm. Salg,36818.0,4.0,Lejlighed,110.0,2016.0,0.0,8000,10.191218,56.154591
"Dagmar Petersens Gade 94, 3. 2",8000 Aarhus C,3700000,2015-08-28,Alm. Salg,36274.0,2.0,Lejlighed,102.0,2016.0,0.0,8000,10.227889,56.166993
"Augustenborggade 5, 4. TV",8000 Aarhus C,1975000,2015-08-27,Alm. Salg,31349.0,2.0,Lejlighed,63.0,1938.0,-1.0,8000,10.184928,56.146666
Anholtsgade 2D,8000 Aarhus C,1568000,2015-08-27,Alm. Salg,49000.0,1.0,Lejlighed,32.0,1876.0,0.0,8000,10.208458,56.161151
"Jerichausgade 12, ST. TV",8000 Aarhus C,1850000,2015-08-27,Fam. Salg,25342.0,3.0,Lejlighed,73.0,1918.0,0.0,8000,10.196483,56.154529
"Søndre Ringgade 83, 3. TH",8000 Aarhus C,1625000,2015-08-27,Alm. Salg,25390.0,2.0,Lejlighed,64.0,1938.0,-4.0,8000,10.185435,56.146692
"Nordborggade 17, 2. 2",8000 Aarhus C,688500,2015-08-27,Fam. Salg,17653.0,1.0,Lejlighed,39.0,1959.0,0.0,8000,10.186077,56.144471
"Ankersgade 5, 1. TV",8000 Aarhus C,1675000,2015-08-27,Alm. Salg,30454.0,2.0,Lejlighed,55.0,1900.0,-1.0,8000,10.192765,56.148338
Dannebrogsgade 35C,8000 Aarhus C,1358226,2015-08-26,Fam. Salg,20272.0,3.0,Villa,67.0,2008.0,0.0,8000,10.196508,56.145983
"Mejlgade 69, 4. TH",8000 Aarhus C,2995000,2015-08-26,Alm. Salg,37911.0,3.0,Lejlighed,79.0,1930.0,0.0,8000,10.213743,56.160983
"Saltholmsgade 7, 3",8000 Aarhus C,2385000,2015-08-26,Alm. Salg,29812.0,3.0,Lejlighed,80.0,1982.0,-3.0,8000,10.196327,56.158834
"Sonnesgade 19, 4. TH",8000 Aarhus C,1450000,2015-08-26,Fam. Salg,22656.0,3.0,Lejlighed,64.0,1918.0,0.0,8000,10.194035,56.150082
"Brammersgade 10, 1",8000 Aarhus C,1200000,2015-08-26,Fam. Salg,21428.0,2.0,Lejlighed,56.0,1897.0,0.0,8000,10.203223,56.147055
"Søndre Ringgade 37, 1. TV",8000 Aarhus C,3100000,2015-08-25,Alm. Salg,29245.0,4.0,Lejlighed,106.0,1933.0,-3.0,8000,10.19009,56.143121
"Vestervang 40, 4. 4043",8000 Aarhus C,3900000,2015-08-25,Alm. Salg,26896.0,6.0,Lejlighed,145.0,1969.0,-5.0,8000,10.189938,56.164916
"Gebauersgade 4, ST. 2",8000 Aarhus C,1840000,2015-08-25,Alm. Salg,29677.0,2.0,Lejlighed,62.0,1988.0,-3.0,8000,10.195352,56.151745
"Guldsmedgade 27, 3. TV",8000 Aarhus C,2175000,2015-08-25,Alm. Salg,33984.0,2.0,Lejlighed,64.0,1955.0,-1.0,8000,10.207637,56.159749
"Falstersgade 10, 4. TV",8000 Aarhus C,1425000,2015-08-25,Fam. Salg,18750.0,3.0,Lejlighed,76.0,1925.0,0.0,8000,10.200906,56.162991
"Lundbyesgade 9, ST. TH",8000 Aarhus C,1402500,2015-08-25,Fam. Salg,16696.0,3.0,Lejlighed,84.0,1925.0,0.0,8000,10.195898,56.155312
"Marselis Boulevard 36, 13. MF",8000 Aarhus C,1150000,2015-08-25,Alm. Salg,25000.0,1.0,Lejlighed,46.0,1967.0,0.0,8000,10.198601,56.141358
Bülowsgade 43,8000 Aarhus C,6925000,2015-08-25,Alm. Salg,41467.0,4.0,Rækkehus,167.0,1887.0,0.0,8000,10.202324,56.146628
"Sjællandsgade 104, 3",8000 Aarhus C,1920000,2015-08-25,Alm. Salg,34909.0,2.0,Lejlighed,55.0,1890.0,0.0,8000,10.204517,56.163432
"Ceres Allé 7, 8. 6",8000 Aarhus C,3216250,2015-08-25,Alm. Salg,33157.0,3.0,Lejlighed,97.0,2016.0,0.0,8000,10.191218,56.154591
"Jægergårdsgade 148, 1. TV",8000 Aarhus C,2050000,2015-08-24,Alm. Salg,34166.0,2.0,Lejlighed,60.0,1912.0,-7.0,8000,10.208733,56.148201
"Langenæs Allé 37, 2. TV",8000 Aarhus C,1698000,2015-08-24,Alm. Salg,32037.0,2.0,Lejlighed,53.0,1968.0,0.0,8000,10.182443,56.141451
"Ceres Allé 7, 4. 7",8000 Aarhus C,3350000,2015-08-24,Alm. Salg,30454.0,4.0,Lejlighed,110.0,2016.0,0.0,8000,10.191218,56.154591
"Ceres Allé 7, 15. 1",8000 Aarhus C,3325000,2015-08-24,Alm. Salg,37359.0,2.0,Lejlighed,89.0,2016.0,0.0,8000,10.191218,56.154591
"Guldsmedgade 20B, 2. TV",8000 Aarhus C,2195000,2015-08-24,Alm. Salg,34841.0,3.0,Lejlighed,63.0,1816.0,0.0,8000,10.207884,56.158493
Ole Rømers Gade 49,8000 Aarhus C,4900000,2015-08-23,Alm. Salg,43362.0,3.0,Rækkehus,113.0,1885.0,0.0,8000,10.198866,56.147133
"Østbanetorvet 4, 2. TH",8000 Aarhus C,820000,2015-08-23,Alm. Salg,12058.0,2.0,Lejlighed,68.0,1895.0,0.0,8000,10.215727,56.163632
"Strandparken 8, ST. TH",8000 Aarhus C,2360000,2015-08-23,Alm. Salg,35757.0,2.0,Lejlighed,66.0,1935.0,-2.0,8000,10.205957,56.143542
"Eckersbergsgade 19, ST. TV",8000 Aarhus C,2198000,2015-08-23,Alm. Salg,32323.0,2.0,Lejlighed,68.0,1936.0,0.0,8000,10.195882,56.151776
Holbergsgade 18,8000 Aarhus C,3810000,2015-08-23,Alm. Salg,28222.0,6.0,Rækkehus,135.0,1889.0,0.0,8000,10.194293,56.148346
"Silkeborgvej 158, 2. TV",8000 Aarhus C,1798000,2015-08-21,Alm. Salg,27242.0,2.0,Lejlighed,66.0,1940.0,0.0,8000,10.178246,56.15656
"Langenæs Allé 8, 5",8000 Aarhus C,2035000,2015-08-21,Alm. Salg,18842.0,3.0,Lejlighed,108.0,1938.0,-3.0,8000,10.187474,56.144188
"Thunøgade 10, 2",8000 Aarhus C,1770000,2015-08-21,Alm. Salg,29500.0,3.0,Lejlighed,60.0,1877.0,0.0,8000,10.206898,56.161616
"Ceres Allé 7, 8. 1",8000 Aarhus C,2475000,2015-08-21,Alm. Salg,33445.0,2.0,Lejlighed,74.0,2016.0,0.0,8000,10.191218,56.154591
"Høegh-Guldbergs Gade 139, 2. TH",8000 Aarhus C,2275000,2015-08-20,Alm. Salg,35000.0,2.0,Lejlighed,65.0,1938.0,0.0,8000,10.202199,56.164892
"Vestervang 40, 4. 4041",8000 Aarhus C,2521000,2015-08-20,Alm. Salg,33613.0,3.0,Lejlighed,75.0,1969.0,0.0,8000,10.189938,56.164916
"Vestervang 40, 6. 4067",8000 Aarhus C,2750000,2015-08-20,Alm. Salg,36666.0,3.0,Lejlighed,75.0,1969.0,0.0,8000,10.189938,56.164916
"Ceres Allé 7, 5. 6",8000 Aarhus C,3100000,2015-08-20,Alm. Salg,32291.0,3.0,Lejlighed,96.0,2016.0,0.0,8000,10.191218,56.154591
"Grønnegade 52, 2",8000 Aarhus C,2550000,2015-08-19,Fam. Salg,19615.0,4.0,Lejlighed,130.0,1885.0,0.0,8000,10.202288,56.158893
"Marselisborg Allé 4B, 4. TH",8000 Aarhus C,1575000,2015-08-19,Alm. Salg,30882.0,2.0,Lejlighed,51.0,1918.0,-2.0,8000,10.207275,56.14804
"Kaserneboulevarden 17, 1. TV",8000 Aarhus C,2250000,2015-08-19,Alm. Salg,33088.0,2.0,Lejlighed,68.0,1933.0,-2.0,8000,10.199721,56.1647
"Marselis Boulevard 34, 11. MF",8000 Aarhus C,1025000,2015-08-19,Alm. Salg,22282.0,1.0,Lejlighed,46.0,1967.0,-2.0,8000,10.198517,56.141161
"Mariane Thomsens Gade 30, 8. 2",8000 Aarhus C,3498000,2015-08-19,Alm. Salg,39750.0,3.0,Lejlighed,88.0,2013.0,0.0,8000,10.229284,56.164931
"Åparken 2, 2. 8",8000 Aarhus C,775000,2015-08-18,Alm. Salg,27678.0,1.0,Lejlighed,28.0,1999.0,0.0,8000,10.186038,56.154104
"Søndre Ringgade 77, ST. TV",8000 Aarhus C,1830000,2015-08-18,Alm. Salg,21279.0,3.0,Lejlighed,86.0,1938.0,-4.0,8000,10.185713,56.146339
"Åparken 2, 3. 7",8000 Aarhus C,800000,2015-08-18,Alm. Salg,28571.0,1.0,Lejlighed,28.0,1999.0,0.0,8000,10.186038,56.154104
"Åparken 2, 3. 8",8000 Aarhus C,800000,2015-08-18,Alm. Salg,28571.0,1.0,Lejlighed,28.0,1999.0,0.0,8000,10.186038,56.154104
"Tage-Hansens Gade 7, ST. TV",8000 Aarhus C,1975000,2015-08-18,Alm. Salg,25000.0,3.0,Lejlighed,79.0,1945.0,0.0,8000,10.184184,56.157595
"Ceres Allé 7, 17. 3",8000 Aarhus C,4100000,2015-08-18,Alm. Salg,39805.0,4.0,Lejlighed,103.0,2016.0,0.0,8000,10.191218,56.154591
"Stadion Allé 15, 5. TV",8000 Aarhus C,1147500,2015-08-17,Fam. Salg,19125.0,2.0,Lejlighed,60.0,1929.0,0.0,8000,10.194436,56.142971
"Skovvejen 44B, 1. TV",8000 Aarhus C,1875000,2015-08-17,Alm. Salg,30737.0,2.0,Lejlighed,61.0,1936.0,0.0,8000,10.218809,56.167951
"Åparken 2, 3. 11",8000 Aarhus C,850000,2015-08-17,Alm. Salg,28333.0,1.0,Lejlighed,30.0,1999.0,0.0,8000,10.186038,56.154104
"Bülowsgade 64, 1. TV",8000 Aarhus C,1789000,2015-08-17,Alm. Salg,33754.0,2.0,Lejlighed,53.0,1907.0,-1.0,8000,10.202239,56.145151
"H.N. Clausens Gade 12, ST",8000 Aarhus C,1998000,2015-08-17,Alm. Salg,30738.0,3.0,Lejlighed,65.0,1887.0,0.0,8000,10.204521,56.147811
"Eckersbergsgade 19, 4. TV",8000 Aarhus C,1875000,2015-08-16,Alm. Salg,33482.0,2.0,Lejlighed,56.0,1936.0,-4.0,8000,10.195882,56.151776
"Odensegade 29, 1. TV",8000 Aarhus C,1758000,2015-08-15,Fam. Salg,32555.0,2.0,Lejlighed,54.0,1907.0,0.0,8000,10.201928,56.145154
"Sønder Allé 23, 2",8000 Aarhus C,1964000,2015-08-14,Alm. Salg,27277.0,2.0,Lejlighed,72.0,1865.0,7.0,8000,10.207258,56.152847
"Nørregade 55, 2. TH",8000 Aarhus C,3400000,2015-08-14,Alm. Salg,29059.0,4.0,Lejlighed,117.0,1913.0,0.0,8000,10.208535,56.16032
"Ceres Allé 7, 2. 2",8000 Aarhus C,2950000,2015-08-14,Alm. Salg,28640.0,3.0,Lejlighed,103.0,2016.0,0.0,8000,10.191218,56.154591
"Langenæs Allé 45, 1. 2",8000 Aarhus C,1050000,2015-08-13,Alm. Salg,25609.0,1.0,Lejlighed,41.0,1960.0,0.0,8000,10.181136,56.14123
"Stadion Allé 33, 5. TH",8000 Aarhus C,2798000,2015-08-13,Alm. Salg,30086.0,3.0,Lejlighed,93.0,1929.0,0.0,8000,10.194758,56.14149
"Ringkøbingvej 26, ST. TH",8000 Aarhus C,1615000,2015-08-13,Fam. Salg,16479.0,3.0,Lejlighed,98.0,1932.0,0.0,8000,10.18949,56.158361
"Søndre Ringgade 57, 5. TV",8000 Aarhus C,1650000,2015-08-13,Alm. Salg,25384.0,2.0,Lejlighed,65.0,1938.0,-1.0,8000,10.187166,56.145067
"Ceres Allé 7, 6. 4",8000 Aarhus C,2750000,2015-08-13,Alm. Salg,31976.0,3.0,Lejlighed,86.0,2016.0,0.0,8000,10.191218,56.154591
"Langenæs Allé 45, 1. 3",8000 Aarhus C,962500,2015-08-12,Alm. Salg,27500.0,1.0,Lejlighed,35.0,1960.0,0.0,8000,10.181136,56.14123
"Banegårdsgade 16, 3. A",8000 Aarhus C,1725000,2015-08-12,Alm. Salg,31944.0,2.0,Lejlighed,54.0,1962.0,0.0,8000,10.200827,56.150326
"Skernvej 12, 2. TH",8000 Aarhus C,2973000,2015-08-12,Alm. Salg,31294.0,3.0,Lejlighed,95.0,1931.0,0.0,8000,10.189259,56.157784
"Møllevejen 23, ST. TV",8000 Aarhus C,2800000,2015-08-12,Alm. Salg,32941.0,2.0,Lejlighed,85.0,1969.0,0.0,8000,10.19437,56.159226
"H.N. Clausens Gade 8, ST",8000 Aarhus C,1550000,2015-08-12,Alm. Salg,26271.0,2.0,Lejlighed,59.0,1885.0,-3.0,8000,10.204493,56.147919
"Vestre Ringgade 218, ST. TV",8000 Aarhus C,2380000,2015-08-11,Alm. Salg,22884.0,3.0,Lejlighed,104.0,1949.0,-1.0,8000,10.195852,56.169527
"Mejlgade 85, ST",8000 Aarhus C,1884000,2015-08-11,Alm. Salg,25808.0,2.0,Lejlighed,73.0,1902.0,-1.0,8000,10.214365,56.161776
"Sonnesgade 19, ST. TH",8000 Aarhus C,2298000,2015-08-11,Alm. Salg,33304.0,2.0,Lejlighed,69.0,1918.0,0.0,8000,10.194035,56.150082
"Mariane Thomsens Gade 50, 3. 2",8000 Aarhus C,4498000,2015-08-11,Alm. Salg,31454.0,4.0,Lejlighed,143.0,2013.0,0.0,8000,10.23058,56.164941
"Mariane Thomsens Gade 31, 4. 1",8000 Aarhus C,2545000,2015-08-11,Alm. Salg,30297.0,2.0,Lejlighed,84.0,2013.0,0.0,8000,10.230183,56.165327
"Mariane Thomsens Gade 30, 1. 3",8000 Aarhus C,2925000,2015-08-11,Alm. Salg,33238.0,3.0,Lejlighed,88.0,2013.0,0.0,8000,10.229284,56.164931
"Dagmar Petersens Gade 98, 4. 4",8000 Aarhus C,9000000,2015-08-11,Alm. Salg,45000.0,3.0,Lejlighed,200.0,2016.0,0.0,8000,10.227644,56.167123
"Vestergade 56H, ST",8000 Aarhus C,2298000,2015-08-11,Alm. Salg,31054.0,3.0,Lejlighed,74.0,1750.0,0.0,8000,10.201287,56.15783
"Lundingsgade 26, 1. TH",8000 Aarhus C,1998000,2015-08-10,Alm. Salg,37000.0,2.0,Lejlighed,54.0,1917.0,0.0,8000,10.194954,56.145329
"Mønsgade 4, 1",8000 Aarhus C,2500000,2015-08-10,Alm. Salg,37313.0,3.0,Lejlighed,67.0,1899.0,-3.0,8000,10.195082,56.157943
"Ceres Allé 7, 7. 6",8000 Aarhus C,3125000,2015-08-10,Alm. Salg,32216.0,4.0,Lejlighed,97.0,2016.0,0.0,8000,10.191218,56.154591
"Ceres Allé 7, 15. 3",8000 Aarhus C,3950000,2015-08-10,Alm. Salg,38349.0,4.0,Lejlighed,103.0,2016.0,0.0,8000,10.191218,56.154591
"Skernvej 6, 4. TH",8000 Aarhus C,1350000,2015-08-09,Alm. Salg,20454.0,2.0,Lejlighed,66.0,1931.0,0.0,8000,10.189967,56.157746
"Ålborggade 28, 5. TV",8000 Aarhus C,1519000,2015-08-09,Fam. Salg,23015.0,3.0,Lejlighed,66.0,1931.0,0.0,8000,10.1914,56.143202
"Lollandsgade 4, 2",8000 Aarhus C,1900000,2015-08-08,Alm. Salg,31147.0,3.0,Lejlighed,61.0,1899.0,0.0,8000,10.202575,56.159767
"Gebauersgade 4, 2. 3",8000 Aarhus C,2198000,2015-08-07,Alm. Salg,30957.0,2.0,Lejlighed,71.0,1988.0,0.0,8000,10.195352,56.151745
"Ceres Allé 7, 11. 4",8000 Aarhus C,3375000,2015-08-07,Alm. Salg,33750.0,3.0,Lejlighed,100.0,2016.0,0.0,8000,10.191218,56.154591
"Tøndergade 98, 3. TH",8000 Aarhus C,2998000,2015-08-07,Alm. Salg,26530.0,5.0,Lejlighed,113.0,1957.0,0.0,8000,10.179609,56.139888
"Vestervang 19, ST. TV",8000 Aarhus C,1545000,2015-08-06,Alm. Salg,30294.0,2.0,Lejlighed,51.0,1986.0,0.0,8000,10.195031,56.16378
"Åparken 2, 1. 2",8000 Aarhus C,850000,2015-08-06,Alm. Salg,26562.0,1.0,Lejlighed,32.0,1999.0,0.0,8000,10.186038,56.154104
"Nordborggade 17, ST. 3",8000 Aarhus C,1230000,2015-08-06,Alm. Salg,30000.0,1.0,Lejlighed,41.0,1959.0,-2.0,8000,10.186077,56.144471
"Åhusene 7, ST. 4",8000 Aarhus C,1910000,2015-08-06,Alm. Salg,34727.0,2.0,Lejlighed,55.0,2013.0,-4.0,8000,10.187806,56.15273
"Viborgvej 25, 4. TH",8000 Aarhus C,2550000,2015-08-06,Alm. Salg,33552.0,3.0,Lejlighed,76.0,1930.0,-2.0,8000,10.190237,56.158439
"Åparken 2, ST. 8",8000 Aarhus C,800000,2015-08-05,Alm. Salg,28571.0,1.0,Lejlighed,28.0,1999.0,0.0,8000,10.186038,56.154104
"F. Vestergaards Gade 16, 1. TV",8000 Aarhus C,1830000,2015-08-05,Fam. Salg,19677.0,3.0,Lejlighed,93.0,1930.0,0.0,8000,10.195178,56.14304
"Langelandsgade 7, ST. 3",8000 Aarhus C,1385000,2015-08-05,Alm. Salg,32976.0,1.0,Lejlighed,42.0,2011.0,0.0,8000,10.198696,56.158735
"Regenburgsgade 6, 3. TV",8000 Aarhus C,1900000,2015-08-04,Alm. Salg,28787.0,2.0,Lejlighed,66.0,1945.0,-5.0,8000,10.183928,56.157206
"Skanderborgvej 40, 5. 2",8000 Aarhus C,1998000,2015-08-04,Alm. Salg,27000.0,2.0,Lejlighed,74.0,1960.0,0.0,8000,10.183637,56.141174
"Ole Rømers Gade 2, 2. TV",8000 Aarhus C,2540000,2015-08-04,Alm. Salg,31358.0,3.0,Lejlighed,81.0,1900.0,-2.0,8000,10.195534,56.147004
"Mariane Thomsens Gade 56, ST. 3",8000 Aarhus C,3298000,2015-08-04,Alm. Salg,30822.0,3.0,Lejlighed,107.0,2013.0,0.0,8000,10.230141,56.164837
"P.P. Ørums Gade 14, 2. TH",8000 Aarhus C,2560000,2015-08-03,Alm. Salg,30476.0,3.0,Lejlighed,84.0,1934.0,-1.0,8000,10.192021,56.141094
"Ny Munkegade 9, ST",8000 Aarhus C,1635000,2015-08-03,Alm. Salg,36333.0,2.0,Lejlighed,45.0,1882.0,-3.0,8000,10.203753,56.160366
"Marstrandsgade 25, 3. TV",8000 Aarhus C,2525000,2015-08-03,Alm. Salg,29705.0,3.0,Lejlighed,85.0,1931.0,-3.0,8000,10.197062,56.154087
"Volden 24, 3",8000 Aarhus C,2890000,2015-08-03,Alm. Salg,36582.0,3.0,Lejlighed,79.0,1907.0,-4.0,8000,10.209371,56.158577
"Bülowsgade 64, ST. TH",8000 Aarhus C,1460000,2015-08-03,Alm. Salg,31063.0,2.0,Lejlighed,47.0,1907.0,-3.0,8000,10.202239,56.145151
"Marselis Boulevard 28, 11. 3",8000 Aarhus C,2050000,2015-08-03,Alm. Salg,26282.0,2.0,Lejlighed,78.0,1959.0,-1.0,8000,10.201582,56.141796
"Finderupvej 2D, 3. 2",8000 Aarhus C,2000000,2015-08-03,Alm. Salg,27027.0,2.0,Lejlighed,74.0,2009.0,0.0,8000,10.182226,56.155524
"Ceres Allé 7, 8. 4",8000 Aarhus C,2850000,2015-08-03,Alm. Salg,33139.0,3.0,Lejlighed,86.0,2016.0,0.0,8000,10.191218,56.154591
"Heibergsgade 23, ST. TV",8000 Aarhus C,1277000,2015-08-02,Alm. Salg,27170.0,2.0,Lejlighed,47.0,1896.0,0.0,8000,10.208076,56.146239
"Vestre Ringgade 224, 5. TH",8000 Aarhus C,1900000,2015-08-02,Alm. Salg,29687.0,2.0,Lejlighed,64.0,1950.0,-5.0,8000,10.196487,56.169737
"Frederiks Allé 102, 1. TV",8000 Aarhus C,2145000,2015-08-01,Alm. Salg,34047.0,2.0,Lejlighed,63.0,1898.0,0.0,8000,10.196333,56.148178
"Langelinieparken 11, ST. TH",8000 Aarhus C,5900000,2015-07-31,Andet,43382.0,3.0,Lejlighed,136.0,2003.0,0.0,8000,10.220852,56.168807
"Dannebrogsgade 6, ST",8000 Aarhus C,3300000,2015-07-31,Alm. Salg,33000.0,4.0,Lejlighed,100.0,1899.0,0.0,8000,10.194318,56.145951
"Hjelmensgade 4, ST. TH",8000 Aarhus C,2000000,2015-07-31,Alm. Salg,27397.0,3.0,Lejlighed,73.0,1885.0,-5.0,8000,10.210278,56.161709
"Finderupvej 2N, ST. 4",8000 Aarhus C,2300000,2015-07-31,Alm. Salg,28395.0,3.0,Lejlighed,81.0,2009.0,0.0,8000,10.181394,56.155047
"Sjællandsgade 80, ST",8000 Aarhus C,1710000,2015-07-30,Alm. Salg,33529.0,2.0,Lejlighed,51.0,1891.0,-2.0,8000,10.20575,56.162899
"Fåborggade 7B, 3",8000 Aarhus C,3200000,2015-07-30,Alm. Salg,34042.0,3.0,Lejlighed,94.0,1911.0,0.0,8000,10.203191,56.143448
"Åparken 2, 5. 2",8000 Aarhus C,950000,2015-07-30,Alm. Salg,29687.0,1.0,Lejlighed,32.0,1999.0,0.0,8000,10.186038,56.154104
"Finderupvej 2A, 2. TH",8000 Aarhus C,3100000,2015-07-30,Alm. Salg,30392.0,3.0,Lejlighed,102.0,2009.0,0.0,8000,10.182293,56.155025
"Silkeborgvej 100, 2. TH",8000 Aarhus C,1650000,2015-07-29,Alm. Salg,26190.0,2.0,Lejlighed,63.0,1935.0,-1.0,8000,10.181348,56.156683
"Frederiks Allé 28, 4. F",8000 Aarhus C,5100000,2015-07-29,Alm. Salg,36690.0,5.0,Lejlighed,139.0,1986.0,-2.0,8000,10.199024,56.150632
"Klostergade 19, 2. 3",8000 Aarhus C,1200000,2015-07-29,Alm. Salg,36363.0,1.0,Lejlighed,33.0,1999.0,-7.0,8000,10.208311,56.158907
"Falstersgade 41A, ST. TV",8000 Aarhus C,2762500,2015-07-29,Fam. Salg,25344.0,4.0,Lejlighed,109.0,1968.0,0.0,8000,10.198919,56.163801
"Mejlgade 87, ST. TH",8000 Aarhus C,2280000,2015-07-29,Alm. Salg,39310.0,1.0,Lejlighed,58.0,1901.0,-5.0,8000,10.214471,56.161874
"Østboulevarden 15, 3",8000 Aarhus C,2560000,2015-07-29,Alm. Salg,34594.0,3.0,Lejlighed,74.0,1907.0,-1.0,8000,10.213,56.164405
"Helga Pedersens Gade 1, 2. 3",8000 Aarhus C,3750000,2015-07-29,Alm. Salg,35046.0,3.0,Lejlighed,107.0,2014.0,-4.0,8000,10.229159,56.166431
"Nørrebrogade 20E, 1. TV",8000 Aarhus C,2495000,2015-07-29,Alm. Salg,37803.0,3.0,Lejlighed,66.0,2015.0,0.0,8000,10.211223,56.163569
Holtevej 20,8000 Aarhus C,10500000,2015-07-28,Alm. Salg,50000.0,7.0,Villa,210.0,1919.0,-11.0,8000,10.198161,56.138478
"Vestergade 77B, 2. TH",8000 Aarhus C,3260000,2015-07-28,Alm. Salg,33958.0,3.0,Lejlighed,96.0,1917.0,-3.0,8000,10.198106,56.15689
"Strandparken 35, 2. TV",8000 Aarhus C,2378000,2015-07-27,Alm. Salg,32575.0,2.0,Lejlighed,73.0,1938.0,-1.0,8000,10.207239,56.143305
"Marstrandsgade 21, 4. TH",8000 Aarhus C,1968980,2015-07-26,Fam. Salg,26972.0,3.0,Lejlighed,73.0,1902.0,0.0,8000,10.197443,56.154286
"Nordborggade 17, 1. 2",8000 Aarhus C,1197000,2015-07-26,Alm. Salg,31500.0,1.0,Lejlighed,38.0,1959.0,0.0,8000,10.186077,56.144471
"Langelandsgade 7, KL",8000 Aarhus C,1160000,2015-07-25,Alm. Salg,31351.0,1.0,Lejlighed,37.0,2011.0,0.0,8000,10.198696,56.158735
Skovvejen 117,8000 Aarhus C,4306000,2015-07-24,Alm. Salg,32134.0,6.0,Rækkehus,134.0,1877.0,3.0,8000,10.218222,56.16788
"Valdemarsgade 52, 1. TH",8000 Aarhus C,1475000,2015-07-24,Alm. Salg,29500.0,2.0,Lejlighed,50.0,1900.0,-3.0,8000,10.196287,56.149777
"Marselis Boulevard 24, 4. TV",8000 Aarhus C,3150000,2015-07-24,Alm. Salg,33870.0,3.0,Lejlighed,93.0,1938.0,-4.0,8000,10.204434,56.14202
"Ole Rømers Gade 2, 1. TV",8000 Aarhus C,2498000,2015-07-24,Alm. Salg,30839.0,3.0,Lejlighed,81.0,1900.0,0.0,8000,10.195534,56.147004
"Fynsgade 17, 2. TH",8000 Aarhus C,2350000,2015-07-23,Alm. Salg,35606.0,3.0,Lejlighed,66.0,1896.0,-3.0,8000,10.201896,56.164158
"Mejlgade 85, 4",8000 Aarhus C,2150000,2015-07-23,Alm. Salg,29054.0,2.0,Lejlighed,74.0,1902.0,-2.0,8000,10.214365,56.161776
"Vester Allé 27, 3. TH",8000 Aarhus C,2999000,2015-07-23,Alm. Salg,34872.0,3.0,Lejlighed,86.0,1927.0,0.0,8000,10.198707,56.157194
"Nordborggade 17, 2. 1",8000 Aarhus C,1249000,2015-07-23,Alm. Salg,33756.0,1.0,Lejlighed,37.0,1959.0,0.0,8000,10.186077,56.144471
"Hans Broges Gade 3, 2. TH",8000 Aarhus C,2400000,2015-07-23,Alm. Salg,32432.0,2.0,Lejlighed,74.0,1901.0,-3.0,8000,10.204573,56.145087
"Åhusene 5, 4. 3",8000 Aarhus C,2098000,2015-07-23,Alm. Salg,40346.0,2.0,Lejlighed,52.0,2013.0,0.0,8000,10.188483,56.152634
"Åparken 2, ST. 3",8000 Aarhus C,900000,2015-07-22,Alm. Salg,28125.0,1.0,Lejlighed,32.0,1999.0,0.0,8000,10.186038,56.154104
"Åparken 2, ST. 9",8000 Aarhus C,900000,2015-07-22,Alm. Salg,28125.0,1.0,Lejlighed,32.0,1999.0,0.0,8000,10.186038,56.154104
"Søndre Ringgade 13, 1. TH",8000 Aarhus C,1700000,2015-07-22,Alm. Salg,26984.0,2.0,Lejlighed,63.0,1933.0,0.0,8000,10.192652,56.141577
"Lundingsgade 3, 2",8000 Aarhus C,2300000,2015-07-22,Alm. Salg,30666.0,3.0,Lejlighed,75.0,1899.0,-4.0,8000,10.195459,56.146838
"Vestergade 80, 3. TH",8000 Aarhus C,2648000,2015-07-22,Alm. Salg,32292.0,3.0,Lejlighed,82.0,1930.0,0.0,8000,10.198164,56.157069
"Sønderborggade 11, 1. TV",8000 Aarhus C,1875000,2015-07-22,Alm. Salg,22865.0,3.0,Lejlighed,82.0,1960.0,0.0,8000,10.181407,56.140931
"Sjællandsgade 73, ST",8000 Aarhus C,2145000,2015-07-21,Alm. Salg,29791.0,3.0,Lejlighed,72.0,1890.0,-2.0,8000,10.205781,56.162687
"Christiansgade 29, 1. TH",8000 Aarhus C,3599000,2015-07-21,Alm. Salg,33324.0,4.0,Lejlighed,108.0,1900.0,0.0,8000,10.203166,56.155493
"Marselis Boulevard 36, 13. TH",8000 Aarhus C,3750000,2015-07-21,Alm. Salg,31250.0,4.0,Lejlighed,120.0,1967.0,0.0,8000,10.198601,56.141358
"Ceres Allé 7, 3. 2",8000 Aarhus C,3050000,2015-07-21,Alm. Salg,29611.0,3.0,Lejlighed,103.0,2016.0,0.0,8000,10.191218,56.154591
"Gustav Wieds Vej 25, 3. TH",8000 Aarhus C,1200000,2015-07-20,Fam. Salg,17391.0,3.0,Lejlighed,69.0,1952.0,0.0,8000,10.196108,56.169053
"Finderupvej 2C, ST. TH",8000 Aarhus C,1750000,2015-07-20,Alm. Salg,28688.0,2.0,Lejlighed,61.0,2009.0,0.0,8000,10.182282,56.155447
"Finderupvej 2D, 4. 1",8000 Aarhus C,1975000,2015-07-20,Alm. Salg,27430.0,2.0,Lejlighed,72.0,2009.0,0.0,8000,10.182226,56.155524
"Finderupvej 2L, 4. TH",8000 Aarhus C,2775000,2015-07-19,Fam. Salg,30494.0,3.0,Lejlighed,91.0,2009.0,0.0,8000,10.181397,56.155402
"Heibergsgade 10, 2. TH",8000 Aarhus C,2000000,2015-07-17,Alm. Salg,31250.0,2.0,Lejlighed,64.0,1895.0,-5.0,8000,10.207706,56.146948
"Sønderport 3, 5. TH",8000 Aarhus C,1740000,2015-07-17,Alm. Salg,31636.0,2.0,Lejlighed,55.0,1938.0,-1.0,8000,10.183346,56.140067
"Jægergårdsgade 114A, KL. TH",8000 Aarhus C,497500,2015-07-17,Alm. Salg,11845.0,1.0,Lejlighed,42.0,2004.0,0.0,8000,10.204764,56.148181
"Sønderborggade 13, 1. MF",8000 Aarhus C,1049000,2015-07-17,Alm. Salg,29971.0,1.0,Lejlighed,35.0,1960.0,0.0,8000,10.18126,56.141053
"Marstrandsgade 17B, ST",8000 Aarhus C,3800000,2015-07-17,Alm. Salg,35185.0,3.0,Lejlighed,108.0,1900.0,0.0,8000,10.198016,56.154316
"Søndre Ringgade 63, 1. MF",8000 Aarhus C,2300000,2015-07-16,Alm. Salg,30263.0,3.0,Lejlighed,76.0,1938.0,-1.0,8000,10.186533,56.145576
"Bogensegade 1, 1. TV",8000 Aarhus C,3198000,2015-07-16,Alm. Salg,36758.0,3.0,Lejlighed,87.0,1910.0,0.0,8000,10.202333,56.144143
"Nørrebrogade 20E, ST. MF",8000 Aarhus C,6410000,2015-07-16,Alm. Salg,114464.0,2.0,Lejlighed,56.0,2015.0,221.0,8000,10.211223,56.163569
"Vestergade 82, ST. TH",8000 Aarhus C,1785000,2015-07-15,Alm. Salg,29262.0,2.0,Lejlighed,61.0,1920.0,0.0,8000,10.1979,56.15704
"Banegårdsgade 16, 2. E",8000 Aarhus C,1389258,2015-07-15,Fam. Salg,17151.0,3.0,Lejlighed,81.0,1962.0,0.0,8000,10.200827,56.150326
"Jægergårdsgade 61, 1",8000 Aarhus C,2240000,2015-07-15,Alm. Salg,32941.0,3.0,Lejlighed,68.0,1889.0,0.0,8000,10.200644,56.148239
"Dagmar Petersens Gade 98, 2. 1",8000 Aarhus C,4700000,2015-07-15,Alm. Salg,37600.0,2.0,Lejlighed,125.0,2016.0,0.0,8000,10.227644,56.167123
"Helga Pedersens Gade 13, 3. 2",8000 Aarhus C,2425000,2015-07-15,Alm. Salg,38492.0,2.0,Lejlighed,63.0,2012.0,-1.0,8000,10.229852,56.166368
"Mariane Thomsens Gade 30, 2. 3",8000 Aarhus C,2998000,2015-07-15,Alm. Salg,34068.0,3.0,Lejlighed,88.0,2013.0,0.0,8000,10.229284,56.164931
"Tøndergade 86, 2. TH",8000 Aarhus C,1225000,2015-07-14,Alm. Salg,29166.0,1.0,Lejlighed,42.0,1957.0,0.0,8000,10.180976,56.140643
Stadion Allé 41,8000 Aarhus C,7500000,2015-07-14,Alm. Salg,44117.0,11.0,Villa,170.0,1929.0,-6.0,8000,10.196052,56.139024
"Godthåbsgade 8, 3",8000 Aarhus C,1650000,2015-07-14,Alm. Salg,36666.0,1.0,Lejlighed,45.0,1895.0,-3.0,8000,10.197309,56.147678
"Mejlgade 89, 2. TV",8000 Aarhus C,2565000,2015-07-14,Alm. Salg,35136.0,3.0,Lejlighed,73.0,1900.0,0.0,8000,10.214593,56.161981
"Skanderborgvej 17, ST. TV",8000 Aarhus C,1789000,2015-07-14,Alm. Salg,27106.0,2.0,Lejlighed,66.0,1938.0,-1.0,8000,10.184814,56.141132
"Max Müllers Gade 2B, 5. TH",8000 Aarhus C,1725000,2015-07-14,Fam. Salg,26953.0,2.0,Lejlighed,64.0,1927.0,0.0,8000,10.189903,56.144978
"Vestervang 20, 2. TH",8000 Aarhus C,2799000,2015-07-13,Alm. Salg,29156.0,3.0,Lejlighed,96.0,1986.0,0.0,8000,10.194756,56.163837
"Jægergårdsgade 62, 3",8000 Aarhus C,1325000,2015-07-13,Alm. Salg,12990.0,3.0,Lejlighed,102.0,1897.0,0.0,8000,10.200746,56.148049
Wilstersgade 47,8000 Aarhus C,4375000,2015-07-12,Alm. Salg,42067.0,3.0,Rækkehus,104.0,1897.0,-3.0,8000,10.194066,56.147355
"Kystvejen 25, KL. 1",8000 Aarhus C,2548000,2015-07-10,Alm. Salg,20548.0,4.0,Lejlighed,124.0,1901.0,0.0,8000,10.213721,56.159415
"Vestervang 6, 2. 621",8000 Aarhus C,4950000,2015-07-10,Alm. Salg,48058.0,4.0,Lejlighed,103.0,1970.0,-1.0,8000,10.192667,56.162109
"Lundbyesgade 28, 5",8000 Aarhus C,2450000,2015-07-10,Alm. Salg,32236.0,2.0,Lejlighed,76.0,1927.0,-2.0,8000,10.194601,56.154641
"Lollandsgade 30, ST. TV",8000 Aarhus C,3565000,2015-07-10,Alm. Salg,46907.0,3.0,Lejlighed,76.0,1894.0,0.0,8000,10.201942,56.16042
"Lollandsgade 30, 1. TV",8000 Aarhus C,2570000,2015-07-10,Alm. Salg,28876.0,3.0,Lejlighed,89.0,1894.0,0.0,8000,10.201942,56.16042
"Skanderborgvej 40, 5. 1",8000 Aarhus C,2300000,2015-07-10,Alm. Salg,20353.0,5.0,Lejlighed,113.0,1960.0,-8.0,8000,10.183637,56.141174
"Mariane Thomsens Gade 39, ST",8000 Aarhus C,2698000,2015-07-10,Alm. Salg,31011.0,3.0,Lejlighed,87.0,2013.0,0.0,8000,10.230616,56.165136
"Helga Pedersens Gade 13, 1. 3",8000 Aarhus C,2225000,2015-07-10,Alm. Salg,35317.0,2.0,Lejlighed,63.0,2012.0,-5.0,8000,10.229852,56.166368
"Ceres Allé 7, 8. 7",8000 Aarhus C,3600000,2015-07-10,Alm. Salg,32727.0,4.0,Lejlighed,110.0,2016.0,0.0,8000,10.191218,56.154591
"Mønsgade 4, ST",8000 Aarhus C,1825000,2015-07-09,Alm. Salg,31465.0,3.0,Lejlighed,58.0,1899.0,-4.0,8000,10.195082,56.157943
"Nørrebrogade 20E, 1. MF",8000 Aarhus C,2095000,2015-07-09,Alm. Salg,37410.0,2.0,Lejlighed,56.0,2015.0,0.0,8000,10.211223,56.163569
"Skovvejen 46F, 4. TH",8000 Aarhus C,1898000,2015-07-08,Alm. Salg,33298.0,2.0,Lejlighed,57.0,1938.0,0.0,8000,10.218947,56.168232
"Kaserneboulevarden 17, 3. TH",8000 Aarhus C,1490000,2015-07-08,Fam. Salg,21911.0,2.0,Lejlighed,68.0,1933.0,0.0,8000,10.199721,56.1647
"Jægergårdsgade 116, ST. 4",8000 Aarhus C,1800000,2015-07-08,Alm. Salg,26865.0,2.0,Lejlighed,67.0,1890.0,-3.0,8000,10.205401,56.147402
"Søndre Ringgade 61, ST. TH",8000 Aarhus C,2050000,2015-07-07,Alm. Salg,29710.0,2.0,Lejlighed,69.0,1938.0,-2.0,8000,10.18693,56.145258
"Frederiks Allé 28, 2. D",8000 Aarhus C,1900000,2015-07-07,Alm. Salg,28358.0,3.0,Lejlighed,67.0,1986.0,-1.0,8000,10.199024,56.150632
"Silkeborgvej 178, 2. 2",8000 Aarhus C,1295000,2015-07-07,Alm. Salg,33205.0,1.0,Lejlighed,39.0,1939.0,0.0,8000,10.176785,56.156156
"Nørrebrogade 20F, 2. TV",8000 Aarhus C,2695000,2015-07-07,Alm. Salg,38500.0,3.0,Lejlighed,70.0,2015.0,0.0,8000,10.211548,56.163617
"Nørrebrogade 20F, 1. TH",8000 Aarhus C,2595000,2015-07-07,Alm. Salg,36549.0,3.0,Lejlighed,71.0,2015.0,0.0,8000,10.211548,56.163617
"Langelinieparken 1C, ST. 2",8000 Aarhus C,2650000,2015-07-06,Alm. Salg,38405.0,2.0,Lejlighed,69.0,2005.0,0.0,8000,10.220055,56.167709
Ole Rømers Gade 87,8000 Aarhus C,3995000,2015-07-06,Alm. Salg,42956.0,3.0,Rækkehus,93.0,1884.0,0.0,8000,10.201647,56.147205
"Schleppegrellsgade 28, 4. TH",8000 Aarhus C,1255000,2015-07-06,Alm. Salg,31375.0,2.0,Lejlighed,40.0,1900.0,9.0,8000,10.192121,56.147931
"Marselis Boulevard 34, 5. MF",8000 Aarhus C,985000,2015-07-06,Alm. Salg,21413.0,1.0,Lejlighed,46.0,1967.0,0.0,8000,10.198517,56.141161
"Hjelmensgade 4B, 3. TH",8000 Aarhus C,1710000,2015-07-06,Alm. Salg,36382.0,2.0,Lejlighed,47.0,1910.0,-2.0,8000,10.210365,56.161883
"Lars Kruses Gade 10, 2",8000 Aarhus C,3400000,2015-07-06,Alm. Salg,30357.0,4.0,Lejlighed,112.0,1910.0,0.0,8000,10.20112,56.144537
"P.P. Ørums Gade 38, 5. TV",8000 Aarhus C,2878000,2015-07-05,Alm. Salg,27673.0,3.0,Lejlighed,104.0,1937.0,0.0,8000,10.188339,56.14245
"Nørre Allé 37, 2. TH",8000 Aarhus C,2599000,2015-07-05,Alm. Salg,33753.0,3.0,Lejlighed,77.0,1912.0,0.0,8000,10.203378,56.159678
"Bülowsgade 22, ST",8000 Aarhus C,2168000,2015-07-03,Alm. Salg,33353.0,2.0,Lejlighed,65.0,1886.0,0.0,8000,10.201977,56.147408
"Jerichausgade 17, 3. TH",8000 Aarhus C,2300000,2015-07-03,Alm. Salg,30666.0,3.0,Lejlighed,75.0,1930.0,-2.0,8000,10.195463,56.15475
"Janus La Cours Gade 5, 2. TH",8000 Aarhus C,2895000,2015-07-03,Alm. Salg,35304.0,3.0,Lejlighed,82.0,1928.0,0.0,8000,10.197821,56.157436
"Helga Pedersens Gade 13, 3. 1",8000 Aarhus C,2448000,2015-07-03,Alm. Salg,40131.0,2.0,Lejlighed,61.0,2012.0,0.0,8000,10.229852,56.166368
"Nordborggade 14, ST. TH",8000 Aarhus C,2095000,2015-07-02,Alm. Salg,32734.0,2.0,Lejlighed,64.0,1944.0,0.0,8000,10.186476,56.144723
"Åparken 2, 5. 1",8000 Aarhus C,855000,2015-07-02,Alm. Salg,28500.0,1.0,Lejlighed,30.0,1999.0,1.0,8000,10.186038,56.154104
"Ceres Allé 7, 3. 4",8000 Aarhus C,2800000,2015-07-02,Alm. Salg,28000.0,3.0,Lejlighed,100.0,2016.0,0.0,8000,10.191218,56.154591
"Gammel Munkegade 6F, ST",8000 Aarhus C,6100000,2015-07-02,Alm. Salg,32620.0,1.0,Rækkehus,187.0,1920.0,0.0,8000,10.204633,56.159379
"Borggade 3, 2. TV",8000 Aarhus C,3425000,2015-07-01,Alm. Salg,31712.0,4.0,Lejlighed,108.0,1934.0,-3.0,8000,10.208619,56.159483
"Guldsmedgade 27, 4. TV",8000 Aarhus C,2165000,2015-07-01,Alm. Salg,36083.0,2.0,Lejlighed,60.0,1955.0,0.0,8000,10.207637,56.159749
"Vesterbrogade 9, 2. TH",8000 Aarhus C,2950000,2015-07-01,Alm. Salg,30729.0,4.0,Lejlighed,96.0,1929.0,-2.0,8000,10.196985,56.157876
"Frederiks Allé 83B, 1",8000 Aarhus C,3125000,2015-07-01,Alm. Salg,27654.0,3.0,Lejlighed,113.0,1900.0,-2.0,8000,10.197555,56.148395
"Thunøgade 35, 1. TH",8000 Aarhus C,1800000,2015-07-01,Fam. Salg,25352.0,2.0,Lejlighed,71.0,1891.0,0.0,8000,10.204244,56.161035
"Mariane Thomsens Gade 42, 1. 1",8000 Aarhus C,2648000,2015-07-01,Alm. Salg,29098.0,3.0,Lejlighed,91.0,2013.0,0.0,8000,10.229664,56.164891
"Janus La Cours Gade 6, 3. TH",8000 Aarhus C,935000,2015-06-30,Fam. Salg,17314.0,2.0,Lejlighed,54.0,1928.0,0.0,8000,10.197654,56.157595
"Heibergsgade 14, 2",8000 Aarhus C,4799000,2015-06-30,Alm. Salg,37492.0,5.0,Lejlighed,128.0,1895.0,0.0,8000,10.207777,56.146732
"Frederiks Allé 28, 2. E",8000 Aarhus C,1925000,2015-06-30,Alm. Salg,26369.0,2.0,Lejlighed,73.0,1986.0,0.0,8000,10.199024,56.150632
"Langelinieparken 3A, ST. 2",8000 Aarhus C,2575000,2015-06-30,Alm. Salg,37318.0,2.0,Lejlighed,69.0,2005.0,-1.0,8000,10.220181,56.167847
"Vestergade 54, 1",8000 Aarhus C,1785000,2015-06-30,Fam. Salg,16527.0,4.0,Lejlighed,108.0,1890.0,0.0,8000,10.201516,56.157585
"Langelinieparken 13, 3. TV",8000 Aarhus C,10200000,2015-06-30,Alm. Salg,55434.0,3.0,Lejlighed,184.0,2003.0,0.0,8000,10.221172,56.169122
"J. Michaelsens Gade 6, 1. TV",8000 Aarhus C,2250000,2015-06-30,Alm. Salg,38793.0,2.0,Lejlighed,58.0,1908.0,-1.0,8000,10.20249,56.143881
"J. Michaelsens Gade 8, 2. TH",8000 Aarhus C,2150000,2015-06-30,Alm. Salg,34677.0,2.0,Lejlighed,62.0,1911.0,0.0,8000,10.202532,56.143733
"Nørrebrogade 20E, 3. MF",8000 Aarhus C,2295000,2015-06-30,Alm. Salg,40982.0,2.0,Lejlighed,56.0,2015.0,0.0,8000,10.211223,56.163569
"Tage-Hansens Gade 13, 4. TV",8000 Aarhus C,2151000,2015-06-30,Alm. Salg,27935.0,3.0,Lejlighed,77.0,1945.0,3.0,8000,10.1842,56.157981
"Helga Pedersens Gade 17, 2. 3",8000 Aarhus C,3950000,2015-06-30,Alm. Salg,50000.0,3.0,Lejlighed,79.0,2012.0,4.0,8000,10.229336,56.166304
"Fredensgade 30, 2. TH",8000 Aarhus C,1940000,2015-06-29,Alm. Salg,32881.0,2.0,Lejlighed,59.0,1857.0,-3.0,8000,10.208576,56.153077
"Knudrisgade 50, 2",8000 Aarhus C,1750000,2015-06-29,Alm. Salg,31250.0,2.0,Lejlighed,56.0,1895.0,-1.0,8000,10.214533,56.16332
"F. Vestergaards Gade 30, 3. TH",8000 Aarhus C,3700000,2015-06-29,Alm. Salg,35922.0,3.0,Lejlighed,103.0,1929.0,0.0,8000,10.195377,56.142005
"Marselisborg Allé 6B, 2",8000 Aarhus C,2375000,2015-06-29,Alm. Salg,29320.0,3.0,Lejlighed,81.0,1902.0,-5.0,8000,10.207363,56.147841
"Sjællandsgade 82D, ST. 4",8000 Aarhus C,2066500,2015-06-29,Alm. Salg,31310.0,2.0,Lejlighed,66.0,1897.0,0.0,8000,10.205759,56.16337
"Stadion Allé 12, ST. TH",8000 Aarhus C,2699000,2015-06-29,Alm. Salg,29988.0,3.0,Lejlighed,90.0,1928.0,0.0,8000,10.193793,56.143426
"Dagmar Petersens Gade 94, 8. 4",8000 Aarhus C,10000000,2015-06-29,Alm. Salg,51546.0,3.0,Lejlighed,194.0,2016.0,0.0,8000,10.227889,56.166993
"Helga Pedersens Gade 3, 3. 4",8000 Aarhus C,4225000,2015-06-29,Alm. Salg,38761.0,4.0,Lejlighed,109.0,2014.0,0.0,8000,10.229042,56.166559
"Stadion Allé 15, 5. TH",8000 Aarhus C,2475000,2015-06-28,Alm. Salg,32142.0,3.0,Lejlighed,77.0,1929.0,-1.0,8000,10.194436,56.142971
"Sejrøgade 2, 1. TV",8000 Aarhus C,2135000,2015-06-27,Alm. Salg,35583.0,2.0,Lejlighed,60.0,1929.0,0.0,8000,10.199448,56.160224
"Klostergade 10, 3. TH",8000 Aarhus C,4600000,2015-06-27,Alm. Salg,28930.0,6.0,Lejlighed,159.0,1898.0,-2.0,8000,10.208928,56.159031
"Gustav Wieds Vej 29, 1. TV",8000 Aarhus C,2400000,2015-06-26,Alm. Salg,27272.0,3.0,Lejlighed,88.0,1952.0,2.0,8000,10.195854,56.169276
"Møllevejen 21, 1. TV",8000 Aarhus C,1865000,2015-06-26,Alm. Salg,31610.0,2.0,Lejlighed,59.0,1969.0,0.0,8000,10.194316,56.159308
"Strandparken 13, 2. TV",8000 Aarhus C,2140000,2015-06-26,Alm. Salg,30571.0,2.0,Lejlighed,70.0,1935.0,0.0,8000,10.206392,56.144126
"Ankersgade 5, 3. TV",8000 Aarhus C,1745000,2015-06-26,Alm. Salg,31727.0,2.0,Lejlighed,55.0,1900.0,-3.0,8000,10.192765,56.148338
"Nørrebrogade 20F, ST. TV",8000 Aarhus C,2395000,2015-06-26,Alm. Salg,34214.0,3.0,Lejlighed,70.0,2015.0,0.0,8000,10.211548,56.163617
"Nørrebrogade 20F, 1. TV",8000 Aarhus C,2495000,2015-06-26,Alm. Salg,35642.0,3.0,Lejlighed,70.0,2015.0,0.0,8000,10.211548,56.163617
"Bülowsgade 50, 4",8000 Aarhus C,1360000,2015-06-25,Fam. Salg,18888.0,2.0,Lejlighed,72.0,1905.0,0.0,8000,10.201991,56.14615
"Hedemannsgade 14, 1. TV",8000 Aarhus C,1825000,2015-06-25,Alm. Salg,29918.0,2.0,Lejlighed,61.0,1911.0,-1.0,8000,10.191397,56.146904
"Fredensgade 46, 2",8000 Aarhus C,4207500,2015-06-25,Fam. Salg,33392.0,3.0,Lejlighed,126.0,1875.0,0.0,8000,10.207874,56.152019
"Knudrisgade 14, 2",8000 Aarhus C,1650000,2015-06-25,Alm. Salg,32352.0,2.0,Lejlighed,51.0,1869.0,-3.0,8000,10.212722,56.162597
"Silkeborgvej 120, 2. TV",8000 Aarhus C,1475000,2015-06-25,Fam. Salg,23046.0,2.0,Lejlighed,64.0,1935.0,0.0,8000,10.18027,56.15681
"Silkeborgvej 122, 3. TH",8000 Aarhus C,1560000,2015-06-25,Alm. Salg,28363.0,2.0,Lejlighed,55.0,1938.0,-1.0,8000,10.17984,56.156356
"Rosenkrantzgade 11B, ST",8000 Aarhus C,2350000,2015-06-25,Alm. Salg,36153.0,2.0,Villa,65.0,1897.0,-6.0,8000,10.206767,56.151841
"Bissensgade 17, 5. TH",8000 Aarhus C,1000000,2015-06-25,Andet,22727.0,2.0,Lejlighed,44.0,1925.0,0.0,8000,10.196195,56.155259
"Sølystgade 44, 2",8000 Aarhus C,1640000,2015-06-24,Alm. Salg,27796.0,2.0,Lejlighed,59.0,1897.0,-2.0,8000,10.204512,56.161999
"Kongsvang Allé 22, 1. TH",8000 Aarhus C,1858000,2015-06-24,Alm. Salg,24447.0,3.0,Lejlighed,76.0,1939.0,-2.0,8000,10.185904,56.139818
"Ringkøbingvej 26, 4. TH",8000 Aarhus C,2900000,2015-06-24,Alm. Salg,29000.0,3.0,Lejlighed,100.0,1932.0,-3.0,8000,10.18949,56.158361
"Saltholmsgade 9, ST. TV",8000 Aarhus C,4110000,2015-06-24,Alm. Salg,36696.0,4.0,Lejlighed,112.0,1924.0,0.0,8000,10.196067,56.158462
"Sejrøgade 2, 2. TH",8000 Aarhus C,1960000,2015-06-23,Fam. Salg,25454.0,3.0,Lejlighed,77.0,1929.0,0.0,8000,10.199448,56.160224
"Studsgade 29B, ST. TV",8000 Aarhus C,2985000,2015-06-23,Alm. Salg,35535.0,3.0,Lejlighed,84.0,1700.0,0.0,8000,10.210819,56.160315
"Åhusene 5, 9. 1",8000 Aarhus C,3925000,2015-06-23,Alm. Salg,42663.0,3.0,Lejlighed,92.0,2013.0,-2.0,8000,10.188483,56.152634
Kirkegårdsvej 2D,8000 Aarhus C,3000000,2015-06-23,Alm. Salg,32967.0,2.0,Rækkehus,91.0,2006.0,0.0,8000,10.211447,56.163836
Carsten Hauchs Vej 1,8000 Aarhus C,1771033,2015-06-23,Fam. Salg,12298.0,3.0,Lejlighed,144.0,1924.0,0.0,8000,10.195047,56.165721
"Skernvej 10, 3. TH",8000 Aarhus C,2199000,2015-06-22,Alm. Salg,32338.0,2.0,Lejlighed,68.0,1931.0,0.0,8000,10.189526,56.157768
"Vestre Ringgade 212, 1. TH",8000 Aarhus C,2098000,2015-06-22,Alm. Salg,22084.0,5.0,Lejlighed,95.0,1950.0,0.0,8000,10.195071,56.169265
"Åparken 2, 1. 10",8000 Aarhus C,850000,2015-06-22,Alm. Salg,26562.0,1.0,Lejlighed,32.0,1999.0,0.0,8000,10.186038,56.154104
"Finderupvej 2A, 1. TH",8000 Aarhus C,2400000,2015-06-22,Alm. Salg,29268.0,3.0,Lejlighed,82.0,2009.0,0.0,8000,10.182293,56.155025
"Høegh-Guldbergs Gade 99B, 2. TV",8000 Aarhus C,2095000,2015-06-22,Alm. Salg,32230.0,2.0,Lejlighed,65.0,1898.0,0.0,8000,10.205546,56.163723
"Ceres Allé 7, 9. 3",8000 Aarhus C,3500000,2015-06-22,Alm. Salg,33980.0,4.0,Lejlighed,103.0,2016.0,0.0,8000,10.191218,56.154591
"Ceres Allé 7, 6. 7",8000 Aarhus C,3450000,2015-06-22,Alm. Salg,31363.0,4.0,Lejlighed,110.0,2016.0,0.0,8000,10.191218,56.154591
